{
"type": "FeatureCollection",
                                                                                
"features": [
{ "type": "Feature", "properties": { "NameHE": "אבו גוש", "Total_popu": "6,512", "Establishe": null, "Height": 684, "NameEN": "Abu Ghosh" }, "geometry": { "type": "Point", "coordinates": [ 35.108447518217908, 31.806872730360812 ] } },
{ "type": "Feature", "properties": { "NameHE": "אבו סנאן", "Total_popu": "12,596", "Establishe": null, "Height": 76, "NameEN": "Abu Sinan" }, "geometry": { "type": "Point", "coordinates": [ 35.161658043009538, 32.963945082257524 ] } },
{ "type": "Feature", "properties": { "NameHE": "אבו קורינאת (יישוב)", "Total_popu": "1,067", "Establishe": null, "Height": null, "NameEN": "Abu Qureinat" }, "geometry": { "type": "Point", "coordinates": [ 34.96357836708809, 31.141091782070927 ] } },
{ "type": "Feature", "properties": { "NameHE": "אבו תלול", "Total_popu": null, "Establishe": null, "Height": null, "NameEN": "Abu Tulul" }, "geometry": { "type": "Point", "coordinates": [ 34.932229545354339, 31.176204431105443 ] } },
{ "type": "Feature", "properties": { "NameHE": "אבטין", "Total_popu": "2,680", "Establishe": null, "Height": 72, "NameEN": "Ibtin" }, "geometry": { "type": "Point", "coordinates": [ 35.111277269377887, 32.761849539380222 ] } },
{ "type": "Feature", "properties": { "NameHE": "אבטליון", "Total_popu": "320", "Establishe": "1987", "Height": 283, "NameEN": "Avtalyon" }, "geometry": { "type": "Point", "coordinates": [ 35.350342652100224, 32.837000793449022 ] } },
{ "type": "Feature", "properties": { "NameHE": "אביאל", "Total_popu": "757", "Establishe": "1949", "Height": 56, "NameEN": "Avi'el" }, "geometry": { "type": "Point", "coordinates": [ 34.991551866810767, 32.531675451002791 ] } },
{ "type": "Feature", "properties": { "NameHE": "אביבים", "Total_popu": "481", "Establishe": "1960", "Height": 776, "NameEN": "Avivim" }, "geometry": { "type": "Point", "coordinates": [ 35.470293049472431, 33.088729948972329 ] } },
{ "type": "Feature", "properties": { "NameHE": "אביגדור", "Total_popu": "743", "Establishe": "1950", "Height": 64, "NameEN": "Avigedor" }, "geometry": { "type": "Point", "coordinates": [ 34.74206089864731, 31.709121954792902 ] } },
{ "type": "Feature", "properties": { "NameHE": "אביחיל", "Total_popu": "1,394", "Establishe": "1932", "Height": 35, "NameEN": "Avihayil" }, "geometry": { "type": "Point", "coordinates": [ 34.87002466642312, 32.349980491048065 ] } },
{ "type": "Feature", "properties": { "NameHE": "אביטל", "Total_popu": "470", "Establishe": "1953", "Height": 70, "NameEN": "Avital" }, "geometry": { "type": "Point", "coordinates": [ 35.306340054531198, 32.557333579846627 ] } },
{ "type": "Feature", "properties": { "NameHE": "אביעזר", "Total_popu": "742", "Establishe": "1958", "Height": 405, "NameEN": "Avi'ezer" }, "geometry": { "type": "Point", "coordinates": [ 35.015453734432882, 31.680870928950828 ] } },
{ "type": "Feature", "properties": { "NameHE": "אבירים", "Total_popu": "193", "Establishe": "1980", "Height": 562, "NameEN": "Abbirim" }, "geometry": { "type": "Point", "coordinates": [ 35.287086393041591, 33.039394692255733 ] } },
{ "type": "Feature", "properties": { "NameHE": "אבן יהודה", "Total_popu": "12,412", "Establishe": "1932", "Height": 40, "NameEN": "Even Yehuda" }, "geometry": { "type": "Point", "coordinates": [ 34.883805153120164, 32.26795600740634 ] } },
{ "type": "Feature", "properties": { "NameHE": "אבן מנחם", "Total_popu": "269", "Establishe": "1960", "Height": 611, "NameEN": "Even Menahem" }, "geometry": { "type": "Point", "coordinates": [ 35.292794326280351, 33.073653834984242 ] } },
{ "type": "Feature", "properties": { "NameHE": "אבן ספיר", "Total_popu": "679", "Establishe": "1950", "Height": 623, "NameEN": "Even Sappir" }, "geometry": { "type": "Point", "coordinates": [ 35.134142607318026, 31.763510942414154 ] } },
{ "type": "Feature", "properties": { "NameHE": "אבן שמואל", "Total_popu": "1,250", "Establishe": "1956", "Height": 157, "NameEN": "Even Shemu'el" }, "geometry": { "type": "Point", "coordinates": [ 34.762631826827253, 31.575450530076917 ] } },
{ "type": "Feature", "properties": { "NameHE": "אבני איתן", "Total_popu": "583", "Establishe": "1978", "Height": 385, "NameEN": "Avne Etan" }, "geometry": { "type": "Point", "coordinates": [ 35.763807247001928, 32.822040514093381 ] } },
{ "type": "Feature", "properties": { "NameHE": "אבני חפץ", "Total_popu": "1,614", "Establishe": "1990", "Height": 200, "NameEN": "Avne Hefez" }, "geometry": { "type": "Point", "coordinates": [ 35.073551402050697, 32.285519084464802 ] } },
{ "type": "Feature", "properties": { "NameHE": "אבנת", "Total_popu": "97", "Establishe": "1983", "Height": -330, "NameEN": "Avenat" }, "geometry": { "type": "Point", "coordinates": [ 35.436879100564902, 31.67899570737147 ] } },
{ "type": "Feature", "properties": { "NameHE": "אבשלום", "Total_popu": "199", "Establishe": "1990", "Height": 91, "NameEN": "Avshalom" }, "geometry": { "type": "Point", "coordinates": [ 34.33204940219624, 31.194639698486128 ] } },
{ "type": "Feature", "properties": { "NameHE": "אדורה", "Total_popu": "278", "Establishe": "1984", "Height": 650, "NameEN": "Adora" }, "geometry": { "type": "Point", "coordinates": [ 35.018029078017108, 31.552990448902431 ] } },
{ "type": "Feature", "properties": { "NameHE": "אדירים", "Total_popu": "239", "Establishe": "1956", "Height": 70, "NameEN": "Addirim" }, "geometry": { "type": "Point", "coordinates": [ 35.272155195132221, 32.549150857765547 ] } },
{ "type": "Feature", "properties": { "NameHE": "אדמית", "Total_popu": "110", "Establishe": "1958", "Height": 453, "NameEN": "Adamit" }, "geometry": { "type": "Point", "coordinates": [ 35.211939350355891, 33.079906290996135 ] } },
{ "type": "Feature", "properties": { "NameHE": "אדרת", "Total_popu": "797", "Establishe": "1961", "Height": 434, "NameEN": "Adderet" }, "geometry": { "type": "Point", "coordinates": [ 34.994934943611092, 31.660186379262985 ] } },
{ "type": "Feature", "properties": { "NameHE": "אודים", "Total_popu": "1,229", "Establishe": "1948", "Height": 15, "NameEN": "Udim" }, "geometry": { "type": "Point", "coordinates": [ 34.848045536001415, 32.265876266123364 ] } },
{ "type": "Feature", "properties": { "NameHE": "אודם", "Total_popu": "93", "Establishe": "1976", "Height": 1050, "NameEN": "Odem" }, "geometry": { "type": "Point", "coordinates": [ 35.748789160482033, 33.194307819008223 ] } },
{ "type": "Feature", "properties": { "NameHE": "אוהד", "Total_popu": "372", "Establishe": "1969", "Height": 130, "NameEN": "Ohad" }, "geometry": { "type": "Point", "coordinates": [ 34.43116015577742, 31.237481705794693 ] } },
{ "type": "Feature", "properties": { "NameHE": "אום אל-פחם", "Total_popu": "49,502", "Establishe": null, "Height": 380, "NameEN": "Umm Al-Fahm" }, "geometry": { "type": "Point", "coordinates": [ 35.151540903073389, 32.528959044701644 ] } },
{ "type": "Feature", "properties": { "NameHE": "אום אל-קוטוף", "Total_popu": "998", "Establishe": null, "Height": 180, "NameEN": "Umm Al-Qutuf" }, "geometry": { "type": "Point", "coordinates": [ 35.054671146803962, 32.469185834116658 ] } },
{ "type": "Feature", "properties": { "NameHE": "אום בטין", "Total_popu": "2,602", "Establishe": null, "Height": 329, "NameEN": "Umm Batin" }, "geometry": { "type": "Point", "coordinates": [ 34.880910541593657, 31.275476607374898 ] } },
{ "type": "Feature", "properties": { "NameHE": "אומן", "Total_popu": "304", "Establishe": "1958", "Height": 64, "NameEN": "Omen" }, "geometry": { "type": "Point", "coordinates": [ 35.242457179619791, 32.563500861404272 ] } },
{ "type": "Feature", "properties": { "NameHE": "אומץ", "Total_popu": "762", "Establishe": "1949", "Height": 34, "NameEN": "Omez" }, "geometry": { "type": "Point", "coordinates": [ 34.99416213967708, 32.3704479494399 ] } },
{ "type": "Feature", "properties": { "NameHE": "אופקים", "Total_popu": "24,634", "Establishe": "1955", "Height": 138, "NameEN": "Ofaqim" }, "geometry": { "type": "Point", "coordinates": [ 34.624920493204598, 31.306684226136735 ] } },
{ "type": "Feature", "properties": { "NameHE": "אור הגנוז", "Total_popu": "432", "Establishe": "1989", "Height": 730, "NameEN": "Or HaGanuz" }, "geometry": { "type": "Point", "coordinates": [ 35.446500273716332, 33.005284891106541 ] } },
{ "type": "Feature", "properties": { "NameHE": "אור הנר", "Total_popu": "612", "Establishe": "1957", "Height": 60, "NameEN": "Or HaNer" }, "geometry": { "type": "Point", "coordinates": [ 34.60273181850868, 31.55757233589183 ] } },
{ "type": "Feature", "properties": { "NameHE": "אור יהודה", "Total_popu": "35,262", "Establishe": "1950", "Height": 30, "NameEN": "Or Yehuda" }, "geometry": { "type": "Point", "coordinates": [ 34.851720535088113, 32.028447119474912 ] } },
{ "type": "Feature", "properties": { "NameHE": "אור עקיבא", "Total_popu": "16,206", "Establishe": "1951", "Height": 16, "NameEN": "Or Aqiva" }, "geometry": { "type": "Point", "coordinates": [ 34.92085129415883, 32.504483883848941 ] } },
{ "type": "Feature", "properties": { "NameHE": "אורה", "Total_popu": "1,229", "Establishe": "1950", "Height": 816, "NameEN": "Ora" }, "geometry": { "type": "Point", "coordinates": [ 35.15367561459805, 31.754321410251979 ] } },
{ "type": "Feature", "properties": { "NameHE": "אורון", "Total_popu": null, "Establishe": null, "Height": null, "NameEN": null }, "geometry": { "type": "Point", "coordinates": [ 35.01760861707691, 30.912718432070385 ] } },
{ "type": "Feature", "properties": { "NameHE": "אורות", "Total_popu": "470", "Establishe": "1952", "Height": 50, "NameEN": "Orot" }, "geometry": { "type": "Point", "coordinates": [ 34.730806333847426, 31.744071894586011 ] } },
{ "type": "Feature", "properties": { "NameHE": "אורטל", "Total_popu": "276", "Establishe": "1978", "Height": 915, "NameEN": "Ortal" }, "geometry": { "type": "Point", "coordinates": [ 35.765777729855941, 33.083512188551325 ] } },
{ "type": "Feature", "properties": { "NameHE": "אורים", "Total_popu": "485", "Establishe": "1946", "Height": 96, "NameEN": "Urim" }, "geometry": { "type": "Point", "coordinates": [ 34.522944816557256, 31.304018982873803 ] } },
{ "type": "Feature", "properties": { "NameHE": "אורנים", "Total_popu": "222", "Establishe": "1951", "Height": 82, "NameEN": "Oranim" }, "geometry": { "type": "Point", "coordinates": [ 35.10844889939014, 32.712433952742352 ] } },
{ "type": "Feature", "properties": { "NameHE": "אורנית", "Total_popu": "7,195", "Establishe": "1985", "Height": 140, "NameEN": "Oranit" }, "geometry": { "type": "Point", "coordinates": [ 34.994096764042901, 32.122640446028036 ] } },
{ "type": "Feature", "properties": { "NameHE": "אושה", "Total_popu": "455", "Establishe": "1937", "Height": 33, "NameEN": "Usha" }, "geometry": { "type": "Point", "coordinates": [ 35.114231061689814, 32.795845767671999 ] } },
{ "type": "Feature", "properties": { "NameHE": "אזור", "Total_popu": "11,701", "Establishe": "1948", "Height": 23, "NameEN": "Azor" }, "geometry": { "type": "Point", "coordinates": [ 34.807600302112803, 32.023176456775218 ] } },
{ "type": "Feature", "properties": { "NameHE": "אזור תעסוקה משגב(תרדיון)", "Total_popu": null, "Establishe": null, "Height": null, "NameEN": null }, "geometry": { "type": "Point", "coordinates": [ 35.273250612833841, 32.867543957003484 ] } },
{ "type": "Feature", "properties": { "NameHE": "אזור תעשייה אכזיב (מילואות)", "Total_popu": null, "Establishe": null, "Height": null, "NameEN": null }, "geometry": { "type": "Point", "coordinates": [ 35.108707752210059, 33.067246510181612 ] } },
{ "type": "Feature", "properties": { "NameHE": "אזור תעשייה נעמן (מילואות)", "Total_popu": null, "Establishe": null, "Height": null, "NameEN": null }, "geometry": { "type": "Point", "coordinates": [ 35.094373701863844, 32.882482327462462 ] } },
{ "type": "Feature", "properties": { "NameHE": "אחווה", "Total_popu": "168", "Establishe": "1976", "Height": 62, "NameEN": "Ahawa" }, "geometry": { "type": "Point", "coordinates": [ 34.769746574269611, 31.744391063322496 ] } },
{ "type": "Feature", "properties": { "NameHE": "אחוזם", "Total_popu": "500", "Establishe": "1950", "Height": 171, "NameEN": "Ahuzzam" }, "geometry": { "type": "Point", "coordinates": [ 34.770318351527173, 31.553471453749019 ] } },
{ "type": "Feature", "properties": { "NameHE": "אחוזת ברק", "Total_popu": "1,894", "Establishe": "1998", "Height": 164, "NameEN": "Ahuzzat Baraq" }, "geometry": { "type": "Point", "coordinates": [ 35.338408737099513, 32.642065627216049 ] } },
{ "type": "Feature", "properties": { "NameHE": "אחיהוד", "Total_popu": "808", "Establishe": "1950", "Height": 34, "NameEN": "Ahihud" }, "geometry": { "type": "Point", "coordinates": [ 35.17750614725631, 32.905069987733924 ] } },
{ "type": "Feature", "properties": { "NameHE": "אחיטוב", "Total_popu": "1,010", "Establishe": "1951", "Height": 41, "NameEN": "Ahituv" }, "geometry": { "type": "Point", "coordinates": [ 34.991146090629606, 32.387846746021786 ] } },
{ "type": "Feature", "properties": { "NameHE": "אחיסמך", "Total_popu": "1,288", "Establishe": "1950", "Height": 73, "NameEN": "Ahisamakh" }, "geometry": { "type": "Point", "coordinates": [ 34.907600371045362, 31.934080701073867 ] } },
{ "type": "Feature", "properties": { "NameHE": "אחיעזר", "Total_popu": "1,850", "Establishe": "1950", "Height": 38, "NameEN": "Ahi'ezer" }, "geometry": { "type": "Point", "coordinates": [ 34.871579565386405, 31.981607001013771 ] } },
{ "type": "Feature", "properties": { "NameHE": "איבים", "Total_popu": "334", "Establishe": "1991", "Height": 88, "NameEN": "Ibbim" }, "geometry": { "type": "Point", "coordinates": [ 34.60930449701987, 31.534245093689112 ] } },
{ "type": "Feature", "properties": { "NameHE": "אייל", "Total_popu": "462", "Establishe": "1949", "Height": 72, "NameEN": "Eyal" }, "geometry": { "type": "Point", "coordinates": [ 34.978937937262984, 32.210899062539895 ] } },
{ "type": "Feature", "properties": { "NameHE": "איילת השחר", "Total_popu": "1,565", "Establishe": "1918", "Height": 163, "NameEN": "Ayyelet HaShahar" }, "geometry": { "type": "Point", "coordinates": [ 35.578943877334289, 33.022359899120929 ] } },
{ "type": "Feature", "properties": { "NameHE": "אילון", "Total_popu": "943", "Establishe": "1938", "Height": 306, "NameEN": "Elon" }, "geometry": { "type": "Point", "coordinates": [ 35.217184920394438, 33.06331537097936 ] } },
{ "type": "Feature", "properties": { "NameHE": "אילון תבור*", "Total_popu": null, "Establishe": null, "Height": null, "NameEN": null }, "geometry": { "type": "Point", "coordinates": [ 35.363015643994004, 32.635183912635391 ] } },
{ "type": "Feature", "properties": { "NameHE": "אילות", "Total_popu": "331", "Establishe": "1962", "Height": 73, "NameEN": "Elot" }, "geometry": { "type": "Point", "coordinates": [ 34.962210703692612, 29.581466777090519 ] } },
{ "type": "Feature", "properties": { "NameHE": "אילנייה", "Total_popu": "471", "Establishe": "1902", "Height": 241, "NameEN": "Ilaniyya" }, "geometry": { "type": "Point", "coordinates": [ 35.405691588189448, 32.752074546901625 ] } },
{ "type": "Feature", "properties": { "NameHE": "אילת", "Total_popu": "47,719", "Establishe": "1951", "Height": 5, "NameEN": "Elat" }, "geometry": { "type": "Point", "coordinates": [ 34.937955571775099, 29.581781157701997 ] } },
{ "type": "Feature", "properties": { "NameHE": "איתמר", "Total_popu": "1,024", "Establishe": "1984", "Height": 660, "NameEN": "Itamar" }, "geometry": { "type": "Point", "coordinates": [ 35.307607907643408, 32.174175330750558 ] } },
{ "type": "Feature", "properties": { "NameHE": "איתן", "Total_popu": "412", "Establishe": "1955", "Height": 156, "NameEN": "Etan" }, "geometry": { "type": "Point", "coordinates": [ 34.74800613507221, 31.571972063393176 ] } },
{ "type": "Feature", "properties": { "NameHE": "איתנים", "Total_popu": "181", "Establishe": "1952", "Height": 770, "NameEN": "Etanim" }, "geometry": { "type": "Point", "coordinates": [ 35.095596822431382, 31.778544600986667 ] } },
{ "type": "Feature", "properties": { "NameHE": "אכסאל", "Total_popu": "13,007", "Establishe": null, "Height": 157, "NameEN": "Iksal" }, "geometry": { "type": "Point", "coordinates": [ 35.330672895539657, 32.673543538933473 ] } },
{ "type": "Feature", "properties": { "NameHE": "אל -עזי", "Total_popu": "187", "Establishe": null, "Height": 97, "NameEN": "Al-Azy" }, "geometry": { "type": "Point", "coordinates": [ 34.797917796240228, 31.721667529976063 ] } },
{ "type": "Feature", "properties": { "NameHE": "אל -עריאן", "Total_popu": "176", "Establishe": null, "Height": 327, "NameEN": "Al-Aryan" }, "geometry": { "type": "Point", "coordinates": [ 35.12580867687381, 32.498196320818863 ] } },
{ "type": "Feature", "properties": { "NameHE": "אל -רום", "Total_popu": "308", "Establishe": "1971", "Height": 1050, "NameEN": "El-Rom" }, "geometry": { "type": "Point", "coordinates": [ 35.771639817189836, 33.179058537697927 ] } },
{ "type": "Feature", "properties": { "NameHE": "אל סייד", "Total_popu": "3,057", "Establishe": null, "Height": 376, "NameEN": "Al Sayyid" }, "geometry": { "type": "Point", "coordinates": [ 34.915113940819424, 31.285118418128992 ] } },
{ "type": "Feature", "properties": { "NameHE": "אלומה", "Total_popu": "479", "Establishe": "1965", "Height": 84, "NameEN": "Alumma" }, "geometry": { "type": "Point", "coordinates": [ 34.744347348343666, 31.651953335783585 ] } },
{ "type": "Feature", "properties": { "NameHE": "אלומות", "Total_popu": "243", "Establishe": "1941", "Height": -11, "NameEN": "Alummot" }, "geometry": { "type": "Point", "coordinates": [ 35.546154687230491, 32.705963992241145 ] } },
{ "type": "Feature", "properties": { "NameHE": "אלון הגליל", "Total_popu": "927", "Establishe": "1980", "Height": 213, "NameEN": "Allon HaGalil" }, "geometry": { "type": "Point", "coordinates": [ 35.219168990969699, 32.757465028559004 ] } },
{ "type": "Feature", "properties": { "NameHE": "אלון מורה", "Total_popu": "1,632", "Establishe": "1979", "Height": 635, "NameEN": "Elon More" }, "geometry": { "type": "Point", "coordinates": [ 35.334940428027359, 32.232675720142325 ] } },
{ "type": "Feature", "properties": { "NameHE": "אלון שבות", "Total_popu": "3,066", "Establishe": "1970", "Height": 965, "NameEN": "Allon Shevut" }, "geometry": { "type": "Point", "coordinates": [ 35.12568420177103, 31.655193518130236 ] } },
{ "type": "Feature", "properties": { "NameHE": "אלוני אבא", "Total_popu": "928", "Establishe": "1948", "Height": 165, "NameEN": "Allone Abba" }, "geometry": { "type": "Point", "coordinates": [ 35.173292046354078, 32.729418973850557 ] } },
{ "type": "Feature", "properties": { "NameHE": "אלוני הבשן", "Total_popu": "343", "Establishe": "1981", "Height": 960, "NameEN": "Allone HaBashan" }, "geometry": { "type": "Point", "coordinates": [ 35.838742583257272, 33.042588753491678 ] } },
{ "type": "Feature", "properties": { "NameHE": "אלוני יצחק", "Total_popu": "285", "Establishe": "1949", "Height": 74, "NameEN": "Allone Yizhaq" }, "geometry": { "type": "Point", "coordinates": [ 35.004052966275218, 32.510505235069083 ] } },
{ "type": "Feature", "properties": { "NameHE": "אלונים", "Total_popu": "467", "Establishe": "1938", "Height": 133, "NameEN": "Allonim" }, "geometry": { "type": "Point", "coordinates": [ 35.148017733588169, 32.715433661354183 ] } },
{ "type": "Feature", "properties": { "NameHE": "אלי-עד", "Total_popu": "277", "Establishe": "1968", "Height": 365, "NameEN": "Eli-Ad" }, "geometry": { "type": "Point", "coordinates": [ 35.733792854688261, 32.802875078936175 ] } },
{ "type": "Feature", "properties": { "NameHE": "אליכין", "Total_popu": "3,231", "Establishe": "1950", "Height": 32, "NameEN": "Elyakhin" }, "geometry": { "type": "Point", "coordinates": [ 34.921790440787206, 32.40827017730232 ] } },
{ "type": "Feature", "properties": { "NameHE": "אליפז", "Total_popu": "96", "Establishe": "1982", "Height": 112, "NameEN": "Elifaz" }, "geometry": { "type": "Point", "coordinates": [ 35.031504929259128, 29.799169274786973 ] } },
{ "type": "Feature", "properties": { "NameHE": "אליפלט", "Total_popu": "559", "Establishe": "1949", "Height": 319, "NameEN": "Elifelet" }, "geometry": { "type": "Point", "coordinates": [ 35.548687265391152, 32.948149951198765 ] } },
{ "type": "Feature", "properties": { "NameHE": "אליקים", "Total_popu": "787", "Establishe": "1949", "Height": 231, "NameEN": "Elyaqim" }, "geometry": { "type": "Point", "coordinates": [ 35.067081713857448, 32.63187237178029 ] } },
{ "type": "Feature", "properties": { "NameHE": "אלישיב", "Total_popu": "655", "Establishe": "1933", "Height": 21, "NameEN": "Elyashiv" }, "geometry": { "type": "Point", "coordinates": [ 34.909226555398639, 32.381910268373204 ] } },
{ "type": "Feature", "properties": { "NameHE": "אלישמע", "Total_popu": "1,179", "Establishe": "1951", "Height": 28, "NameEN": "Elishama" }, "geometry": { "type": "Point", "coordinates": [ 34.928091747298851, 32.153535032222024 ] } },
{ "type": "Feature", "properties": { "NameHE": "אלמגור", "Total_popu": "345", "Establishe": "1961", "Height": -12, "NameEN": "Almagor" }, "geometry": { "type": "Point", "coordinates": [ 35.602634639264316, 32.91138193842567 ] } },
{ "type": "Feature", "properties": { "NameHE": "אלמוג", "Total_popu": "178", "Establishe": "1977", "Height": -270, "NameEN": "Almog" }, "geometry": { "type": "Point", "coordinates": [ 35.461018745817356, 31.78996659502436 ] } },
{ "type": "Feature", "properties": { "NameHE": "אלעד", "Total_popu": "41,360", "Establishe": "1998", "Height": 122, "NameEN": "El'ad" }, "geometry": { "type": "Point", "coordinates": [ 34.958045846932464, 32.051874645996364 ] } },
{ "type": "Feature", "properties": { "NameHE": "אלעזר", "Total_popu": "2,302", "Establishe": "1975", "Height": 910, "NameEN": "El'azar" }, "geometry": { "type": "Point", "coordinates": [ 35.140967835086691, 31.661515061043993 ] } },
{ "type": "Feature", "properties": { "NameHE": "אלפי מנשה", "Total_popu": "7,574", "Establishe": "1983", "Height": 200, "NameEN": "Alfe Menashe" }, "geometry": { "type": "Point", "coordinates": [ 35.007672221576058, 32.166579379235053 ] } },
{ "type": "Feature", "properties": { "NameHE": "אלקוש", "Total_popu": "320", "Establishe": "1949", "Height": 638, "NameEN": "Elqosh" }, "geometry": { "type": "Point", "coordinates": [ 35.322940524949985, 33.033234513075882 ] } },
{ "type": "Feature", "properties": { "NameHE": "אלקנה", "Total_popu": "3,860", "Establishe": "1977", "Height": 270, "NameEN": "Elqana" }, "geometry": { "type": "Point", "coordinates": [ 35.036086379740112, 32.108274570755441 ] } },
{ "type": "Feature", "properties": { "NameHE": "אמונים", "Total_popu": "917", "Establishe": "1950", "Height": 34, "NameEN": "Emunim" }, "geometry": { "type": "Point", "coordinates": [ 34.676459676361212, 31.743587735996449 ] } },
{ "type": "Feature", "properties": { "NameHE": "אמירים", "Total_popu": "696", "Establishe": "1950", "Height": 558, "NameEN": "Amirim" }, "geometry": { "type": "Point", "coordinates": [ 35.451661353918972, 32.937288970651423 ] } },
{ "type": "Feature", "properties": { "NameHE": "אמנון", "Total_popu": "266", "Establishe": "1983", "Height": 20, "NameEN": "Amnun" }, "geometry": { "type": "Point", "coordinates": [ 35.572563872118437, 32.903449189116394 ] } },
{ "type": "Feature", "properties": { "NameHE": "אמציה", "Total_popu": "536", "Establishe": "1955", "Height": 363, "NameEN": "Amazya" }, "geometry": { "type": "Point", "coordinates": [ 34.913613257288354, 31.533585673409309 ] } },
{ "type": "Feature", "properties": { "NameHE": "אניעם", "Total_popu": "528", "Establishe": "1978", "Height": 430, "NameEN": "Ani'am" }, "geometry": { "type": "Point", "coordinates": [ 35.739420600062175, 32.957848048692725 ] } },
{ "type": "Feature", "properties": { "NameHE": "אספר", "Total_popu": "469", "Establishe": "1983", "Height": 940, "NameEN": "Asfar" }, "geometry": { "type": "Point", "coordinates": [ 35.187586614275574, 31.585502548709474 ] } },
{ "type": "Feature", "properties": { "NameHE": "אעבלין", "Total_popu": "12,275", "Establishe": null, "Height": 102, "NameEN": "I'billin" }, "geometry": { "type": "Point", "coordinates": [ 35.17945150922364, 32.829238513933142 ] } },
{ "type": "Feature", "properties": { "NameHE": "אפיק", "Total_popu": "256", "Establishe": "1967", "Height": 335, "NameEN": "Afiq" }, "geometry": { "type": "Point", "coordinates": [ 35.704829939184421, 32.778558513083738 ] } },
{ "type": "Feature", "properties": { "NameHE": "אפיקים", "Total_popu": "1,443", "Establishe": "1932", "Height": -203, "NameEN": "Afiqim" }, "geometry": { "type": "Point", "coordinates": [ 35.576971927356198, 32.679095644960654 ] } },
{ "type": "Feature", "properties": { "NameHE": "אפק", "Total_popu": "517", "Establishe": "1939", "Height": 25, "NameEN": "Afeq" }, "geometry": { "type": "Point", "coordinates": [ 35.127325864626386, 32.838143969903484 ] } },
{ "type": "Feature", "properties": { "NameHE": "אפרת", "Total_popu": "7,812", "Establishe": "1980", "Height": 910, "NameEN": "Efrat" }, "geometry": { "type": "Point", "coordinates": [ 35.172280346842605, 31.671717815749236 ] } },
{ "type": "Feature", "properties": { "NameHE": "ארבל", "Total_popu": "613", "Establishe": "1949", "Height": 57, "NameEN": "Arbel" }, "geometry": { "type": "Point", "coordinates": [ 35.48431083670247, 32.812788091350285 ] } },
{ "type": "Feature", "properties": { "NameHE": "ארגמן", "Total_popu": "132", "Establishe": "1968", "Height": -180, "NameEN": "Argaman" }, "geometry": { "type": "Point", "coordinates": [ 35.521989198674916, 32.172466322109216 ] } },
{ "type": "Feature", "properties": { "NameHE": "ארז", "Total_popu": "476", "Establishe": "1949", "Height": 39, "NameEN": "Erez" }, "geometry": { "type": "Point", "coordinates": [ 34.567012508136116, 31.559834206636847 ] } },
{ "type": "Feature", "properties": { "NameHE": "אריאל", "Total_popu": "18,176", "Establishe": "1978", "Height": 560, "NameEN": "Ari'el" }, "geometry": { "type": "Point", "coordinates": [ 35.159843237159507, 32.096565151609049 ] } },
{ "type": "Feature", "properties": { "NameHE": "ארסוף", "Total_popu": "136", "Establishe": "1995", "Height": 33, "NameEN": "Arsuf" }, "geometry": { "type": "Point", "coordinates": [ 34.816638641154739, 32.213932055118399 ] } },
{ "type": "Feature", "properties": { "NameHE": "אשבול", "Total_popu": "369", "Establishe": "1955", "Height": 173, "NameEN": "Eshbol" }, "geometry": { "type": "Point", "coordinates": [ 34.667725738051509, 31.445218920761619 ] } },
{ "type": "Feature", "properties": { "NameHE": "אשבל", "Total_popu": "103", "Establishe": "1979", "Height": 272, "NameEN": "Eshbal" }, "geometry": { "type": "Point", "coordinates": [ 35.305635037309024, 32.876719167656923 ] } },
{ "type": "Feature", "properties": { "NameHE": "אשדוד", "Total_popu": "214,886", "Establishe": "1955", "Height": 24, "NameEN": "Ashdod" }, "geometry": { "type": "Point", "coordinates": [ 34.659616558629367, 31.808448230523947 ] } },
{ "type": "Feature", "properties": { "NameHE": "אשדות יעקב (איחוד)", "Total_popu": "777", "Establishe": "1933", "Height": -206, "NameEN": "Ashdot Ya'aqov(Ihud)" }, "geometry": { "type": "Point", "coordinates": [ 35.580187648872339, 32.657715588608951 ] } },
{ "type": "Feature", "properties": { "NameHE": "אשדות יעקב (מאוחד)", "Total_popu": "401", "Establishe": "1933", "Height": -204, "NameEN": "Ashdot Ya'aqov(Me'uhad)" }, "geometry": { "type": "Point", "coordinates": [ 35.582024733413427, 32.663661353539709 ] } },
{ "type": "Feature", "properties": { "NameHE": "אשחר", "Total_popu": "672", "Establishe": "1986", "Height": 310, "NameEN": "Eshhar" }, "geometry": { "type": "Point", "coordinates": [ 35.300515289014029, 32.885379373166785 ] } },
{ "type": "Feature", "properties": { "NameHE": "אשכולות", "Total_popu": "510", "Establishe": "1982", "Height": 600, "NameEN": "Eshkolot" }, "geometry": { "type": "Point", "coordinates": [ 34.905011727180124, 31.391068457552368 ] } },
{ "type": "Feature", "properties": { "NameHE": "אשל הנשיא", "Total_popu": "240", "Establishe": "1952", "Height": 195, "NameEN": "Eshel HaNasi" }, "geometry": { "type": "Point", "coordinates": [ 34.6972995904, 31.325298900080377 ] } },
{ "type": "Feature", "properties": { "NameHE": "אשלים", "Total_popu": "386", "Establishe": "1976", "Height": 316, "NameEN": "Ashalim" }, "geometry": { "type": "Point", "coordinates": [ 34.701733118732513, 30.963647967662478 ] } },
{ "type": "Feature", "properties": { "NameHE": "אשקלון", "Total_popu": "120,038", "Establishe": "1948", "Height": 10, "NameEN": "Ashqelon" }, "geometry": { "type": "Point", "coordinates": [ 34.570936603238856, 31.664737877860528 ] } },
{ "type": "Feature", "properties": { "NameHE": "אשרת", "Total_popu": "422", "Establishe": "1983", "Height": 58, "NameEN": "Asherat" }, "geometry": { "type": "Point", "coordinates": [ 35.154166950316132, 32.970704830696704 ] } },
{ "type": "Feature", "properties": { "NameHE": "אשתאול", "Total_popu": "1,104", "Establishe": "1949", "Height": 283, "NameEN": "Eshta'ol" }, "geometry": { "type": "Point", "coordinates": [ 35.008176963322143, 31.780874806719677 ] } },
{ "type": "Feature", "properties": { "NameHE": "באקה אל-גרביה", "Total_popu": "26,793", "Establishe": null, "Height": 50, "NameEN": "Baqa Al-Gharbiyye" }, "geometry": { "type": "Point", "coordinates": [ 35.041357546515286, 32.419663408660838 ] } },
{ "type": "Feature", "properties": { "NameHE": "באר אורה", "Total_popu": "350", "Establishe": "1950", "Height": 136, "NameEN": "Be'er Ora" }, "geometry": { "type": "Point", "coordinates": [ 34.977399095472734, 29.712122910538376 ] } },
{ "type": "Feature", "properties": { "NameHE": "באר גנים", "Total_popu": null, "Establishe": null, "Height": null, "NameEN": "Be'er Gannim" }, "geometry": { "type": "Point", "coordinates": [ 34.605834215309216, 31.698184064943622 ] } },
{ "type": "Feature", "properties": { "NameHE": "באר טוביה", "Total_popu": "918", "Establishe": "1930", "Height": 55, "NameEN": "Be'er Toviyya" }, "geometry": { "type": "Point", "coordinates": [ 34.720728334472838, 31.733843308153336 ] } },
{ "type": "Feature", "properties": { "NameHE": "באר יעקב", "Total_popu": "16,316", "Establishe": "1907", "Height": 75, "NameEN": "Be'er Ya'aqov" }, "geometry": { "type": "Point", "coordinates": [ 34.840516594967482, 31.943735929054274 ] } },
{ "type": "Feature", "properties": { "NameHE": "באר מילכה", "Total_popu": "97", "Establishe": "2006", "Height": 217, "NameEN": "Be'er Milka" }, "geometry": { "type": "Point", "coordinates": [ 34.406626721981141, 30.933121074121438 ] } },
{ "type": "Feature", "properties": { "NameHE": "באר שבע", "Total_popu": "197,269", "Establishe": "1948", "Height": 260, "NameEN": "Be'er Sheva" }, "geometry": { "type": "Point", "coordinates": [ 34.788479257684074, 31.25699211630269 ] } },
{ "type": "Feature", "properties": { "NameHE": "בארות יצחק", "Total_popu": "398", "Establishe": "1948", "Height": 51, "NameEN": "Be'erot Yizhaq" }, "geometry": { "type": "Point", "coordinates": [ 34.909792569284491, 32.042302751305158 ] } },
{ "type": "Feature", "properties": { "NameHE": "בארותיים", "Total_popu": "1,019", "Establishe": "1949", "Height": 30, "NameEN": "Be'erotayim" }, "geometry": { "type": "Point", "coordinates": [ 34.983128552402171, 32.319840366352459 ] } },
{ "type": "Feature", "properties": { "NameHE": "בארי", "Total_popu": "935", "Establishe": "1946", "Height": 84, "NameEN": "Be'eri" }, "geometry": { "type": "Point", "coordinates": [ 34.491368091268988, 31.424066697735455 ] } },
{ "type": "Feature", "properties": { "NameHE": "בוסתן הגליל", "Total_popu": "828", "Establishe": "1948", "Height": 3, "NameEN": "Bustan HaGalil" }, "geometry": { "type": "Point", "coordinates": [ 35.082416904517991, 32.951720173613182 ] } },
{ "type": "Feature", "properties": { "NameHE": "בועיינה-נוג'ידאת", "Total_popu": "8,512", "Establishe": null, "Height": 236, "NameEN": "Bu'eine-Nujeidat" }, "geometry": { "type": "Point", "coordinates": [ 35.369521899187617, 32.812000119121812 ] } },
{ "type": "Feature", "properties": { "NameHE": "בוקעאתא", "Total_popu": "6,124", "Establishe": null, "Height": 1070, "NameEN": "Buq'ata" }, "geometry": { "type": "Point", "coordinates": [ 35.781049404619878, 33.207867203355711 ] } },
{ "type": "Feature", "properties": { "NameHE": "בורגתה", "Total_popu": "1,055", "Establishe": "1949", "Height": 26, "NameEN": "Burgeta" }, "geometry": { "type": "Point", "coordinates": [ 34.962300668879053, 32.32485197864068 ] } },
{ "type": "Feature", "properties": { "NameHE": "בחן", "Total_popu": "767", "Establishe": "1953", "Height": 70, "NameEN": "Bahan" }, "geometry": { "type": "Point", "coordinates": [ 35.019068642257899, 32.349566251866754 ] } },
{ "type": "Feature", "properties": { "NameHE": "בטחה", "Total_popu": "681", "Establishe": "1950", "Height": 120, "NameEN": "Bitha" }, "geometry": { "type": "Point", "coordinates": [ 34.632208617442458, 31.334765592523205 ] } },
{ "type": "Feature", "properties": { "NameHE": "בי\"ס אזורי מקיף (אשר)", "Total_popu": null, "Establishe": null, "Height": null, "NameEN": null }, "geometry": { "type": "Point", "coordinates": [ 35.137765483026179, 33.017493734925154 ] } },
{ "type": "Feature", "properties": { "NameHE": "ביצרון", "Total_popu": "1,197", "Establishe": "1935", "Height": 55, "NameEN": "Bizzaron" }, "geometry": { "type": "Point", "coordinates": [ 34.728950337932964, 31.797453324259465 ] } },
{ "type": "Feature", "properties": { "NameHE": "ביר אל-מכסור", "Total_popu": "8,141", "Establishe": null, "Height": 250, "NameEN": "Bir El-Maksur" }, "geometry": { "type": "Point", "coordinates": [ 35.222269314750704, 32.785868203852651 ] } },
{ "type": "Feature", "properties": { "NameHE": "ביר הדאג'", "Total_popu": "3,183", "Establishe": null, "Height": 287, "NameEN": "Bir Hadage" }, "geometry": { "type": "Point", "coordinates": [ 34.70308886406638, 31.0246241863907 ] } },
{ "type": "Feature", "properties": { "NameHE": "בירייה", "Total_popu": "771", "Establishe": "1945", "Height": 840, "NameEN": "Biriyya" }, "geometry": { "type": "Point", "coordinates": [ 35.499701825775887, 32.978391002345809 ] } },
{ "type": "Feature", "properties": { "NameHE": "בית אורן", "Total_popu": "407", "Establishe": "1939", "Height": 292, "NameEN": "Bet Oren" }, "geometry": { "type": "Point", "coordinates": [ 35.005480268238969, 32.73142896441081 ] } },
{ "type": "Feature", "properties": { "NameHE": "בית אל", "Total_popu": "5,897", "Establishe": "1977", "Height": 860, "NameEN": "Bet El" }, "geometry": { "type": "Point", "coordinates": [ 35.226441125465726, 31.941099302414223 ] } },
{ "type": "Feature", "properties": { "NameHE": "בית אלעזרי", "Total_popu": "1,395", "Establishe": "1948", "Height": 44, "NameEN": "Bet El'azari" }, "geometry": { "type": "Point", "coordinates": [ 34.802559758640612, 31.843790357399588 ] } },
{ "type": "Feature", "properties": { "NameHE": "בית אלפא", "Total_popu": "1,140", "Establishe": "1922", "Height": -81, "NameEN": "Bet Alfa" }, "geometry": { "type": "Point", "coordinates": [ 35.432199715115779, 32.517312107571485 ] } },
{ "type": "Feature", "properties": { "NameHE": "בית אריה", "Total_popu": "4,166", "Establishe": "1981", "Height": 345, "NameEN": "Bet Arye" }, "geometry": { "type": "Point", "coordinates": [ 35.050085452092752, 32.037230601204577 ] } },
{ "type": "Feature", "properties": { "NameHE": "בית ברל", "Total_popu": "81", "Establishe": "1947", "Height": 74, "NameEN": "Bet Berl" }, "geometry": { "type": "Point", "coordinates": [ 34.925719837120752, 32.201414426513921 ] } },
{ "type": "Feature", "properties": { "NameHE": "בית ג'ן", "Total_popu": "11,409", "Establishe": null, "Height": 908, "NameEN": "Beit Jann" }, "geometry": { "type": "Point", "coordinates": [ 35.379968351327115, 32.965632560864513 ] } },
{ "type": "Feature", "properties": { "NameHE": "בית גוברין", "Total_popu": "362", "Establishe": "1949", "Height": 271, "NameEN": "Bet Guvrin" }, "geometry": { "type": "Point", "coordinates": [ 34.896290496246834, 31.614081737406341 ] } },
{ "type": "Feature", "properties": { "NameHE": "בית גמליאל", "Total_popu": "920", "Establishe": "1949", "Height": 28, "NameEN": "Bet Gamli'el" }, "geometry": { "type": "Point", "coordinates": [ 34.761492748633131, 31.85970637869185 ] } },
{ "type": "Feature", "properties": { "NameHE": "בית דגן", "Total_popu": "7,050", "Establishe": "1948", "Height": 35, "NameEN": "Bet Dagan" }, "geometry": { "type": "Point", "coordinates": [ 34.82981929926531, 31.999616850673554 ] } },
{ "type": "Feature", "properties": { "NameHE": "בית הגדי", "Total_popu": "689", "Establishe": "1949", "Height": 154, "NameEN": "Bet HaGaddi" }, "geometry": { "type": "Point", "coordinates": [ 34.612805560999782, 31.429735429322509 ] } },
{ "type": "Feature", "properties": { "NameHE": "בית הלוי", "Total_popu": "739", "Establishe": "1945", "Height": 22, "NameEN": "Bet HaLewi" }, "geometry": { "type": "Point", "coordinates": [ 34.931097343666131, 32.353464153368776 ] } },
{ "type": "Feature", "properties": { "NameHE": "בית הלל", "Total_popu": "743", "Establishe": "1940", "Height": 85, "NameEN": "Bet Hillel" }, "geometry": { "type": "Point", "coordinates": [ 35.605476198089264, 33.208556745242554 ] } },
{ "type": "Feature", "properties": { "NameHE": "בית העמק", "Total_popu": "481", "Establishe": "1949", "Height": 50, "NameEN": "Bet HaEmeq" }, "geometry": { "type": "Point", "coordinates": [ 35.145288227308619, 32.971151771905248 ] } },
{ "type": "Feature", "properties": { "NameHE": "בית הערבה", "Total_popu": "119", "Establishe": "1980", "Height": -320, "NameEN": "Bet HaArava" }, "geometry": { "type": "Point", "coordinates": [ 35.499504562288912, 31.806477015190374 ] } },
{ "type": "Feature", "properties": { "NameHE": "בית השיטה", "Total_popu": "1,131", "Establishe": "1935", "Height": -41, "NameEN": "Bet HaShitta" }, "geometry": { "type": "Point", "coordinates": [ 35.447107320126101, 32.559755772666705 ] } },
{ "type": "Feature", "properties": { "NameHE": "בית זיד", "Total_popu": "50", "Establishe": "1943", "Height": 133, "NameEN": "Bet Zeid" }, "geometry": { "type": "Point", "coordinates": [ 35.118273115191457, 32.70044835304568 ] } },
{ "type": "Feature", "properties": { "NameHE": "בית זית", "Total_popu": "1,558", "Establishe": "1949", "Height": 604, "NameEN": "Bet Zayit" }, "geometry": { "type": "Point", "coordinates": [ 35.162106562554897, 31.782281668625284 ] } },
{ "type": "Feature", "properties": { "NameHE": "בית זרע", "Total_popu": "536", "Establishe": "1926", "Height": -205, "NameEN": "Bet Zera" }, "geometry": { "type": "Point", "coordinates": [ 35.573600954307572, 32.689024367833802 ] } },
{ "type": "Feature", "properties": { "NameHE": "בית חולים פוריה", "Total_popu": null, "Establishe": null, "Height": null, "NameEN": null }, "geometry": { "type": "Point", "coordinates": [ 35.540357698165622, 32.752777902799217 ] } },
{ "type": "Feature", "properties": { "NameHE": "בית חורון", "Total_popu": "1,149", "Establishe": "1977", "Height": 625, "NameEN": "Bet Horon" }, "geometry": { "type": "Point", "coordinates": [ 35.126551755494312, 31.878220134996148 ] } },
{ "type": "Feature", "properties": { "NameHE": "בית חירות", "Total_popu": "865", "Establishe": "1933", "Height": 18, "NameEN": "Bet Herut" }, "geometry": { "type": "Point", "coordinates": [ 34.869066620220678, 32.379284910400145 ] } },
{ "type": "Feature", "properties": { "NameHE": "בית חלקיה", "Total_popu": "734", "Establishe": "1953", "Height": 70, "NameEN": "Bet Hilqiyya" }, "geometry": { "type": "Point", "coordinates": [ 34.812289762782839, 31.791334341325978 ] } },
{ "type": "Feature", "properties": { "NameHE": "בית חנן", "Total_popu": "532", "Establishe": "1930", "Height": 44, "NameEN": "Bet Hanan" }, "geometry": { "type": "Point", "coordinates": [ 34.772560050635803, 31.933512897195488 ] } },
{ "type": "Feature", "properties": { "NameHE": "בית חנניה", "Total_popu": "819", "Establishe": "1950", "Height": 12, "NameEN": "Bet Hananya" }, "geometry": { "type": "Point", "coordinates": [ 34.925883973850638, 32.528841920558413 ] } },
{ "type": "Feature", "properties": { "NameHE": "בית חשמונאי", "Total_popu": "2,087", "Establishe": "1972", "Height": 113, "NameEN": "Bet Hashmonay" }, "geometry": { "type": "Point", "coordinates": [ 34.91990154784267, 31.888657175223834 ] } },
{ "type": "Feature", "properties": { "NameHE": "בית יהושע", "Total_popu": "1,006", "Establishe": "1938", "Height": 21, "NameEN": "Bet Yehoshua" }, "geometry": { "type": "Point", "coordinates": [ 34.865790714334111, 32.260243964680882 ] } },
{ "type": "Feature", "properties": { "NameHE": "בית יוסף", "Total_popu": "440", "Establishe": "1937", "Height": -230, "NameEN": "Bet Yosef" }, "geometry": { "type": "Point", "coordinates": [ 35.550391858365863, 32.559964898073709 ] } },
{ "type": "Feature", "properties": { "NameHE": "בית ינאי", "Total_popu": "419", "Establishe": "1933", "Height": 16, "NameEN": "Bet Yannay" }, "geometry": { "type": "Point", "coordinates": [ 34.863533069754098, 32.381344092141077 ] } },
{ "type": "Feature", "properties": { "NameHE": "בית יצחק-שער חפר", "Total_popu": "2,008", "Establishe": "1940", "Height": 28, "NameEN": "Bet Yizhaq-Sh. Hefer" }, "geometry": { "type": "Point", "coordinates": [ 34.891431042240242, 32.334344870027977 ] } },
{ "type": "Feature", "properties": { "NameHE": "בית לחם הגלילית", "Total_popu": "779", "Establishe": "1948", "Height": 174, "NameEN": "Bet Lehem HaGelilit" }, "geometry": { "type": "Point", "coordinates": [ 35.192173815530438, 32.733570105079799 ] } },
{ "type": "Feature", "properties": { "NameHE": "בית מאיר", "Total_popu": "781", "Establishe": "1950", "Height": 572, "NameEN": "Bet Me'ir" }, "geometry": { "type": "Point", "coordinates": [ 35.036764259939829, 31.794082533231382 ] } },
{ "type": "Feature", "properties": { "NameHE": "בית נחמיה", "Total_popu": "888", "Establishe": "1950", "Height": 79, "NameEN": "Bet Nehemya" }, "geometry": { "type": "Point", "coordinates": [ 34.95549848585808, 31.975847444233569 ] } },
{ "type": "Feature", "properties": { "NameHE": "בית ניר", "Total_popu": "522", "Establishe": "1955", "Height": 246, "NameEN": "Bet Nir" }, "geometry": { "type": "Point", "coordinates": [ 34.874357112278268, 31.647576008980085 ] } },
{ "type": "Feature", "properties": { "NameHE": "בית נקופה", "Total_popu": "581", "Establishe": "1949", "Height": 675, "NameEN": "Bet Neqofa" }, "geometry": { "type": "Point", "coordinates": [ 35.126085829023701, 31.804359671034593 ] } },
{ "type": "Feature", "properties": { "NameHE": "בית עובד", "Total_popu": "279", "Establishe": "1933", "Height": 31, "NameEN": "Bet Oved" }, "geometry": { "type": "Point", "coordinates": [ 34.773988557015905, 31.921974573268621 ] } },
{ "type": "Feature", "properties": { "NameHE": "בית עוזיאל", "Total_popu": "541", "Establishe": "1956", "Height": 131, "NameEN": "Bet Uzzi'el" }, "geometry": { "type": "Point", "coordinates": [ 34.904525203526653, 31.871487181052316 ] } },
{ "type": "Feature", "properties": { "NameHE": "בית עזרא", "Total_popu": "1,071", "Establishe": "1950", "Height": 52, "NameEN": "Bet Ezra" }, "geometry": { "type": "Point", "coordinates": [ 34.657398617449047, 31.736743602613146 ] } },
{ "type": "Feature", "properties": { "NameHE": "בית עריף", "Total_popu": "1,065", "Establishe": "1951", "Height": 59, "NameEN": "Bet Arif" }, "geometry": { "type": "Point", "coordinates": [ 34.934595049697997, 31.996726683063258 ] } },
{ "type": "Feature", "properties": { "NameHE": "בית צבי", "Total_popu": "198", "Establishe": "1953", "Height": 42, "NameEN": "Bet Zevi" }, "geometry": { "type": "Point", "coordinates": [ 34.969773396579008, 32.719374523821827 ] } },
{ "type": "Feature", "properties": { "NameHE": "בית קמה", "Total_popu": "1,240", "Establishe": "1949", "Height": 240, "NameEN": "Bet Qama" }, "geometry": { "type": "Point", "coordinates": [ 34.761975005333767, 31.446661432609613 ] } },
{ "type": "Feature", "properties": { "NameHE": "בית קשת", "Total_popu": "476", "Establishe": "1944", "Height": 185, "NameEN": "Bet Qeshet" }, "geometry": { "type": "Point", "coordinates": [ 35.394311337766105, 32.719360443668805 ] } },
{ "type": "Feature", "properties": { "NameHE": "בית רבן", "Total_popu": "1,021", "Establishe": "1946", "Height": 57, "NameEN": "Bet Rabban" }, "geometry": { "type": "Point", "coordinates": [ 34.728425769671233, 31.817381694308921 ] } },
{ "type": "Feature", "properties": { "NameHE": "בית רימון", "Total_popu": "482", "Establishe": "1977", "Height": 354, "NameEN": "Bet Rimmon" }, "geometry": { "type": "Point", "coordinates": [ 35.329759091306009, 32.782560737915624 ] } },
{ "type": "Feature", "properties": { "NameHE": "בית שאן", "Total_popu": "17,184", "Establishe": "1948", "Height": -125, "NameEN": "Bet She'an" }, "geometry": { "type": "Point", "coordinates": [ 35.500573133021355, 32.49904493270094 ] } },
{ "type": "Feature", "properties": { "NameHE": "בית שמש", "Total_popu": "89,796", "Establishe": "1950", "Height": 220, "NameEN": "Bet Shemesh" }, "geometry": { "type": "Point", "coordinates": [ 34.982339351573238, 31.724737683740102 ] } },
{ "type": "Feature", "properties": { "NameHE": "בית שערים", "Total_popu": "721", "Establishe": "1936", "Height": 80, "NameEN": "Bet She'arim" }, "geometry": { "type": "Point", "coordinates": [ 35.175649925192545, 32.695515267916129 ] } },
{ "type": "Feature", "properties": { "NameHE": "בית שקמה", "Total_popu": "769", "Establishe": "1950", "Height": 50, "NameEN": "Bet Shiqma" }, "geometry": { "type": "Point", "coordinates": [ 34.607371918491715, 31.639211175183299 ] } },
{ "type": "Feature", "properties": { "NameHE": "ביתן אהרן", "Total_popu": "391", "Establishe": "1936", "Height": 23, "NameEN": "Bitan Aharon" }, "geometry": { "type": "Point", "coordinates": [ 34.8706083726061, 32.364590449583261 ] } },
{ "type": "Feature", "properties": { "NameHE": "ביתר עילית", "Total_popu": "42,467", "Establishe": "1985", "Height": 870, "NameEN": "Betar Illit" }, "geometry": { "type": "Point", "coordinates": [ 35.11414753795421, 31.70100019103247 ] } },
{ "type": "Feature", "properties": { "NameHE": "בלפוריה", "Total_popu": "429", "Establishe": "1922", "Height": 93, "NameEN": "Balfurya" }, "geometry": { "type": "Point", "coordinates": [ 35.295978408565247, 32.629209111785507 ] } },
{ "type": "Feature", "properties": { "NameHE": "בן זכאי", "Total_popu": "968", "Establishe": "1950", "Height": 29, "NameEN": "Ben Zakkay" }, "geometry": { "type": "Point", "coordinates": [ 34.727494444534187, 31.854713589022442 ] } },
{ "type": "Feature", "properties": { "NameHE": "בן עמי", "Total_popu": "735", "Establishe": "1949", "Height": 28, "NameEN": "Ben Ammi" }, "geometry": { "type": "Point", "coordinates": [ 35.124077860783274, 33.004682008505824 ] } },
{ "type": "Feature", "properties": { "NameHE": "בן שמן (כפר נוער)", "Total_popu": "563", "Establishe": "1921", "Height": 70, "NameEN": "Ben Shemen(K.No'ar)" }, "geometry": { "type": "Point", "coordinates": [ 34.927192650683729, 31.959826695871634 ] } },
{ "type": "Feature", "properties": { "NameHE": "בן שמן (מושב)", "Total_popu": "793", "Establishe": "1952", "Height": 70, "NameEN": "Ben Shemen (Moshav)" }, "geometry": { "type": "Point", "coordinates": [ 34.922879913975805, 31.951881248870386 ] } },
{ "type": "Feature", "properties": { "NameHE": "בני ברק", "Total_popu": "168,769", "Establishe": "1924", "Height": 10, "NameEN": "Bene Beraq" }, "geometry": { "type": "Point", "coordinates": [ 34.835911897160436, 32.090175100593548 ] } },
{ "type": "Feature", "properties": { "NameHE": "בני דקלים", "Total_popu": null, "Establishe": null, "Height": null, "NameEN": "Bne Dkalim" }, "geometry": { "type": "Point", "coordinates": [ 34.917559664727797, 31.517090300427554 ] } },
{ "type": "Feature", "properties": { "NameHE": "בני דרום", "Total_popu": "564", "Establishe": "1949", "Height": 38, "NameEN": "Bene Darom" }, "geometry": { "type": "Point", "coordinates": [ 34.691873894063086, 31.818953177262319 ] } },
{ "type": "Feature", "properties": { "NameHE": "בני דרור", "Total_popu": "1,222", "Establishe": "1946", "Height": 31, "NameEN": "Bene Deror" }, "geometry": { "type": "Point", "coordinates": [ 34.898472360058221, 32.261860373374866 ] } },
{ "type": "Feature", "properties": { "NameHE": "בני יהודה", "Total_popu": "1,010", "Establishe": "1972", "Height": 345, "NameEN": "Bene Yehuda" }, "geometry": { "type": "Point", "coordinates": [ 35.689142737621836, 32.798817924111837 ] } },
{ "type": "Feature", "properties": { "NameHE": "בני נצרים", "Total_popu": "390", "Establishe": "2010", "Height": 85, "NameEN": "Bne Netsarim" }, "geometry": { "type": "Point", "coordinates": [ 34.313896612504713, 31.138869442857409 ] } },
{ "type": "Feature", "properties": { "NameHE": "בני עטרות", "Total_popu": "921", "Establishe": "1948", "Height": 51, "NameEN": "Bene Atarot" }, "geometry": { "type": "Point", "coordinates": [ 34.913663041876546, 32.02364439506988 ] } },
{ "type": "Feature", "properties": { "NameHE": "בני עי\"ש", "Total_popu": "6,959", "Establishe": "1958", "Height": 77, "NameEN": "Bene Ayish" }, "geometry": { "type": "Point", "coordinates": [ 34.761185574794837, 31.79134703338234 ] } },
{ "type": "Feature", "properties": { "NameHE": "בני ציון", "Total_popu": "1,318", "Establishe": "1947", "Height": 38, "NameEN": "Bene Ziyyon" }, "geometry": { "type": "Point", "coordinates": [ 34.870607400962541, 32.220037821637192 ] } },
{ "type": "Feature", "properties": { "NameHE": "בני ראם", "Total_popu": "1,368", "Establishe": "1949", "Height": 65, "NameEN": "Bene Re'em" }, "geometry": { "type": "Point", "coordinates": [ 34.78988895959872, 31.771332882258143 ] } },
{ "type": "Feature", "properties": { "NameHE": "בניה", "Total_popu": "783", "Establishe": "1949", "Height": 33, "NameEN": "Benaya" }, "geometry": { "type": "Point", "coordinates": [ 34.749945924975933, 31.844154330875423 ] } },
{ "type": "Feature", "properties": { "NameHE": "בנימינה-גבעת עדה*", "Total_popu": "13,970", "Establishe": "1903", "Height": 15, "NameEN": "Binyamina-Giv'at Ada" }, "geometry": { "type": "Point", "coordinates": [ 34.967317306663269, 32.51837660419497 ] } },
{ "type": "Feature", "properties": { "NameHE": "בסמ\"ה", "Total_popu": "8,475", "Establishe": null, "Height": 231, "NameEN": "Basma" }, "geometry": { "type": "Point", "coordinates": [ 35.109603137535061, 32.528483521665095 ] } },
{ "type": "Feature", "properties": { "NameHE": "בסמת טבעון", "Total_popu": "7,109", "Establishe": null, "Height": 199, "NameEN": "Basmat Tab'un" }, "geometry": { "type": "Point", "coordinates": [ 35.137123846084023, 32.734364133954315 ] } },
{ "type": "Feature", "properties": { "NameHE": "בענה", "Total_popu": "7,584", "Establishe": null, "Height": 260, "NameEN": "Bi'ne" }, "geometry": { "type": "Point", "coordinates": [ 35.281317263166201, 32.929304496317215 ] } },
{ "type": "Feature", "properties": { "NameHE": "בצרה", "Total_popu": "1,141", "Establishe": "1946", "Height": 28, "NameEN": "Bazra" }, "geometry": { "type": "Point", "coordinates": [ 34.877948454614625, 32.214015112622896 ] } },
{ "type": "Feature", "properties": { "NameHE": "בצת", "Total_popu": "250", "Establishe": "1949", "Height": 26, "NameEN": "Bezet" }, "geometry": { "type": "Point", "coordinates": [ 35.134405348791383, 33.070960400026273 ] } },
{ "type": "Feature", "properties": { "NameHE": "בקוע", "Total_popu": "618", "Establishe": "1951", "Height": 154, "NameEN": "Beqoa" }, "geometry": { "type": "Point", "coordinates": [ 34.925791072485943, 31.828247826545624 ] } },
{ "type": "Feature", "properties": { "NameHE": "בקעות", "Total_popu": "175", "Establishe": "1972", "Height": 100, "NameEN": "Beqa'ot" }, "geometry": { "type": "Point", "coordinates": [ 35.454750649113066, 32.243136227275286 ] } },
{ "type": "Feature", "properties": { "NameHE": "בר-לב", "Total_popu": null, "Establishe": null, "Height": null, "NameEN": null }, "geometry": { "type": "Point", "coordinates": [ 35.192791061420216, 32.907777399659388 ] } },
{ "type": "Feature", "properties": { "NameHE": "בר גיורא", "Total_popu": "607", "Establishe": "1950", "Height": 701, "NameEN": "Bar Giyyora" }, "geometry": { "type": "Point", "coordinates": [ 35.072228772836503, 31.729822825009716 ] } },
{ "type": "Feature", "properties": { "NameHE": "בר יוחאי", "Total_popu": "772", "Establishe": "1979", "Height": 692, "NameEN": "Bar Yohay" }, "geometry": { "type": "Point", "coordinates": [ 35.448405609173975, 32.997707203213672 ] } },
{ "type": "Feature", "properties": { "NameHE": "ברוכין", "Total_popu": "479", "Establishe": "2012", "Height": 390, "NameEN": "Brukhin" }, "geometry": { "type": "Point", "coordinates": [ 35.092697576302079, 32.081012749410817 ] } },
{ "type": "Feature", "properties": { "NameHE": "ברור חיל", "Total_popu": "799", "Establishe": "1948", "Height": 73, "NameEN": "Beror Hayil" }, "geometry": { "type": "Point", "coordinates": [ 34.645492332219376, 31.557586087632583 ] } },
{ "type": "Feature", "properties": { "NameHE": "ברוש", "Total_popu": "340", "Establishe": "1953", "Height": 130, "NameEN": "Berosh" }, "geometry": { "type": "Point", "coordinates": [ 34.632431303775597, 31.367414735535423 ] } },
{ "type": "Feature", "properties": { "NameHE": "ברכה", "Total_popu": "1,922", "Establishe": "1983", "Height": 850, "NameEN": "Berakha" }, "geometry": { "type": "Point", "coordinates": [ 35.265527176038908, 32.192508860205429 ] } },
{ "type": "Feature", "properties": { "NameHE": "ברכיה", "Total_popu": "1,159", "Establishe": "1950", "Height": 44, "NameEN": "Berekhya" }, "geometry": { "type": "Point", "coordinates": [ 34.624886684227413, 31.670585730703017 ] } },
{ "type": "Feature", "properties": { "NameHE": "ברעם", "Total_popu": "572", "Establishe": "1949", "Height": 725, "NameEN": "Bar'am" }, "geometry": { "type": "Point", "coordinates": [ 35.434118974756984, 33.058866895796122 ] } },
{ "type": "Feature", "properties": { "NameHE": "ברק", "Total_popu": "412", "Establishe": "1956", "Height": 70, "NameEN": "Baraq" }, "geometry": { "type": "Point", "coordinates": [ 35.265017672786136, 32.542752189463677 ] } },
{ "type": "Feature", "properties": { "NameHE": "ברקאי", "Total_popu": "493", "Establishe": "1949", "Height": 72, "NameEN": "Barqay" }, "geometry": { "type": "Point", "coordinates": [ 35.028598905702275, 32.47492325279071 ] } },
{ "type": "Feature", "properties": { "NameHE": "ברקן", "Total_popu": "1,502", "Establishe": "1981", "Height": 455, "NameEN": "Barqan" }, "geometry": { "type": "Point", "coordinates": [ 35.108983421354147, 32.105825509032499 ] } },
{ "type": "Feature", "properties": { "NameHE": "ברקת", "Total_popu": "1,658", "Establishe": "1952", "Height": 80, "NameEN": "Bareqet" }, "geometry": { "type": "Point", "coordinates": [ 34.944807397898515, 32.015325210634948 ] } },
{ "type": "Feature", "properties": { "NameHE": "בת הדר", "Total_popu": "619", "Establishe": "1995", "Height": 56, "NameEN": "Bat Hadar" }, "geometry": { "type": "Point", "coordinates": [ 34.596672102622499, 31.647367415680741 ] } },
{ "type": "Feature", "properties": { "NameHE": "בת חן", "Total_popu": "409", "Establishe": "1967", "Height": 34, "NameEN": "Bat Hen" }, "geometry": { "type": "Point", "coordinates": [ 34.871899190044793, 32.360265445578612 ] } },
{ "type": "Feature", "properties": { "NameHE": "בת חפר", "Total_popu": "5,527", "Establishe": "1996", "Height": 53, "NameEN": "Bat Hefer" }, "geometry": { "type": "Point", "coordinates": [ 35.013684166401752, 32.333687236046181 ] } },
{ "type": "Feature", "properties": { "NameHE": "בת ים", "Total_popu": "129,436", "Establishe": "1926", "Height": 20, "NameEN": "Bat Yam" }, "geometry": { "type": "Point", "coordinates": [ 34.749215528786692, 32.013962338722649 ] } },
{ "type": "Feature", "properties": { "NameHE": "בת עין", "Total_popu": "1,117", "Establishe": "1989", "Height": 870, "NameEN": "Bat Ayin" }, "geometry": { "type": "Point", "coordinates": [ 35.100481775143891, 31.6585123441535 ] } },
{ "type": "Feature", "properties": { "NameHE": "בת שלמה", "Total_popu": "555", "Establishe": "1889", "Height": 91, "NameEN": "Bat Shelomo" }, "geometry": { "type": "Point", "coordinates": [ 35.003533632137582, 32.600316678138689 ] } },
{ "type": "Feature", "properties": { "NameHE": "בתי זיקוק - קישון", "Total_popu": null, "Establishe": null, "Height": null, "NameEN": null }, "geometry": { "type": "Point", "coordinates": [ 35.057649893869829, 32.795161011113336 ] } },
{ "type": "Feature", "properties": { "NameHE": "ג'דיידה-מכר", "Total_popu": "19,623", "Establishe": null, "Height": 57, "NameEN": "Judeide-Maker" }, "geometry": { "type": "Point", "coordinates": [ 35.142426911927402, 32.932739044872442 ] } },
{ "type": "Feature", "properties": { "NameHE": "ג'ולס", "Total_popu": "5,968", "Establishe": null, "Height": 122, "NameEN": "Julis" }, "geometry": { "type": "Point", "coordinates": [ 35.180810314636965, 32.940416474553821 ] } },
{ "type": "Feature", "properties": { "NameHE": "ג'לג'וליה", "Total_popu": "8,906", "Establishe": null, "Height": 43, "NameEN": "Jaljulye" }, "geometry": { "type": "Point", "coordinates": [ 34.957259034896715, 32.147463232860098 ] } },
{ "type": "Feature", "properties": { "NameHE": "ג'סר א-זרקא", "Total_popu": "13,477", "Establishe": null, "Height": 17, "NameEN": "Jisr Az-Zarqa" }, "geometry": { "type": "Point", "coordinates": [ 34.90978490603348, 32.536920797353574 ] } },
{ "type": "Feature", "properties": { "NameHE": "ג'ש (גוש חלב)", "Total_popu": "2,959", "Establishe": null, "Height": 778, "NameEN": "Jish(Gush Halav)" }, "geometry": { "type": "Point", "coordinates": [ 35.435095273639227, 33.022618404397832 ] } },
{ "type": "Feature", "properties": { "NameHE": "ג'ת", "Total_popu": "10,744", "Establishe": null, "Height": 55, "NameEN": "Jatt" }, "geometry": { "type": "Point", "coordinates": [ 35.028101190017097, 32.402782804337519 ] } },
{ "type": "Feature", "properties": { "NameHE": "גאולי תימן", "Total_popu": "368", "Establishe": "1947", "Height": 8, "NameEN": "Ge'ule Teman" }, "geometry": { "type": "Point", "coordinates": [ 34.901752896920314, 32.39235285102766 ] } },
{ "type": "Feature", "properties": { "NameHE": "גאולים", "Total_popu": "908", "Establishe": "1945", "Height": 57, "NameEN": "Ge'ulim" }, "geometry": { "type": "Point", "coordinates": [ 34.93752113983269, 32.300364218053289 ] } },
{ "type": "Feature", "properties": { "NameHE": "גאליה", "Total_popu": "1,006", "Establishe": "1948", "Height": 22, "NameEN": "Ge'alya" }, "geometry": { "type": "Point", "coordinates": [ 34.764644510512731, 31.885779850712634 ] } },
{ "type": "Feature", "properties": { "NameHE": "גבולות", "Total_popu": "270", "Establishe": "1943", "Height": 128, "NameEN": "Gevulot" }, "geometry": { "type": "Point", "coordinates": [ 34.465691308339139, 31.210718363030196 ] } },
{ "type": "Feature", "properties": { "NameHE": "גבים", "Total_popu": "399", "Establishe": "1947", "Height": 122, "NameEN": "Gevim" }, "geometry": { "type": "Point", "coordinates": [ 34.596315371835665, 31.50757922848862 ] } },
{ "type": "Feature", "properties": { "NameHE": "גבע", "Total_popu": "628", "Establishe": "1921", "Height": 10, "NameEN": "Geva" }, "geometry": { "type": "Point", "coordinates": [ 35.373224033751036, 32.566549430346072 ] } },
{ "type": "Feature", "properties": { "NameHE": "גבע בנימין", "Total_popu": "4,674", "Establishe": "1984", "Height": 655, "NameEN": "Geva Binyamin" }, "geometry": { "type": "Point", "coordinates": [ 35.273435647905778, 31.849456965904761 ] } },
{ "type": "Feature", "properties": { "NameHE": "גבע כרמל", "Total_popu": "1,085", "Establishe": "1949", "Height": 21, "NameEN": "Geva  Karmel" }, "geometry": { "type": "Point", "coordinates": [ 34.954785136072516, 32.662447738148067 ] } },
{ "type": "Feature", "properties": { "NameHE": "גבעולים", "Total_popu": "304", "Establishe": "1952", "Height": 120, "NameEN": "Giv'olim" }, "geometry": { "type": "Point", "coordinates": [ 34.590300485917581, 31.396981808596102 ] } },
{ "type": "Feature", "properties": { "NameHE": "גבעון החדשה", "Total_popu": "1,131", "Establishe": "1980", "Height": 755, "NameEN": "Giv'on HaHadasha" }, "geometry": { "type": "Point", "coordinates": [ 35.158378614990042, 31.848114518903682 ] } },
{ "type": "Feature", "properties": { "NameHE": "גבעות בר", "Total_popu": "464", "Establishe": "2004", "Height": 250, "NameEN": "Geva'ot Bar" }, "geometry": { "type": "Point", "coordinates": [ 34.755351368845687, 31.357532296126397 ] } },
{ "type": "Feature", "properties": { "NameHE": "גבעת אבני", "Total_popu": "2,124", "Establishe": "1991", "Height": 279, "NameEN": "Giv'at Avni" }, "geometry": { "type": "Point", "coordinates": [ 35.438298678201505, 32.775642475077085 ] } },
{ "type": "Feature", "properties": { "NameHE": "גבעת אלה", "Total_popu": "1,685", "Establishe": "1988", "Height": 265, "NameEN": "Giv'at Ela" }, "geometry": { "type": "Point", "coordinates": [ 35.244017515256594, 32.721932468308069 ] } },
{ "type": "Feature", "properties": { "NameHE": "גבעת ברנר", "Total_popu": "2,555", "Establishe": "1928", "Height": 58, "NameEN": "Giv'at Brenner" }, "geometry": { "type": "Point", "coordinates": [ 34.802363321468611, 31.864712013641306 ] } },
{ "type": "Feature", "properties": { "NameHE": "גבעת השלושה", "Total_popu": "739", "Establishe": "1925", "Height": 29, "NameEN": "Giv'at HaShelosha" }, "geometry": { "type": "Point", "coordinates": [ 34.921161864468118, 32.097789162756747 ] } },
{ "type": "Feature", "properties": { "NameHE": "גבעת זאב", "Total_popu": "13,466", "Establishe": "1983", "Height": 770, "NameEN": "Giv'at Ze'ev" }, "geometry": { "type": "Point", "coordinates": [ 35.16407832289093, 31.86083229068797 ] } },
{ "type": "Feature", "properties": { "NameHE": "גבעת ח\"ן", "Total_popu": "389", "Establishe": "1933", "Height": 65, "NameEN": "Giv'at Hen" }, "geometry": { "type": "Point", "coordinates": [ 34.875990317914741, 32.168560442429943 ] } },
{ "type": "Feature", "properties": { "NameHE": "גבעת חביבה", "Total_popu": null, "Establishe": null, "Height": null, "NameEN": null }, "geometry": { "type": "Point", "coordinates": [ 35.021718939527901, 32.457780336870186 ] } },
{ "type": "Feature", "properties": { "NameHE": "גבעת חיים (איחוד)", "Total_popu": "947", "Establishe": "1932", "Height": 25, "NameEN": "Giv'at Hayyim (Ihud)" }, "geometry": { "type": "Point", "coordinates": [ 34.932978584839816, 32.399367461666053 ] } },
{ "type": "Feature", "properties": { "NameHE": "גבעת חיים (מאוחד)", "Total_popu": "972", "Establishe": "1932", "Height": 21, "NameEN": "Giv'at Hayyim(Me'uhad)" }, "geometry": { "type": "Point", "coordinates": [ 34.930449717266235, 32.392057809239155 ] } },
{ "type": "Feature", "properties": { "NameHE": "גבעת יואב", "Total_popu": "572", "Establishe": "1968", "Height": 320, "NameEN": "Giv'at Yo'av" }, "geometry": { "type": "Point", "coordinates": [ 35.681455612596629, 32.798757266972409 ] } },
{ "type": "Feature", "properties": { "NameHE": "גבעת יערים", "Total_popu": "1,374", "Establishe": "1950", "Height": 703, "NameEN": "Giv'at Ye'arim" }, "geometry": { "type": "Point", "coordinates": [ 35.092630989964768, 31.786658604543305 ] } },
{ "type": "Feature", "properties": { "NameHE": "גבעת ישעיהו", "Total_popu": "719", "Establishe": "1958", "Height": 289, "NameEN": "Giv'at Yesha'yahu" }, "geometry": { "type": "Point", "coordinates": [ 34.947036385155009, 31.670740619820716 ] } },
{ "type": "Feature", "properties": { "NameHE": "גבעת כ\"ח", "Total_popu": "733", "Establishe": "1950", "Height": 71, "NameEN": "Giv'at Koah" }, "geometry": { "type": "Point", "coordinates": [ 34.93523904400589, 32.029824301539364 ] } },
{ "type": "Feature", "properties": { "NameHE": "גבעת ניל\"י", "Total_popu": "667", "Establishe": "1953", "Height": 137, "NameEN": "Giv'at Nili" }, "geometry": { "type": "Point", "coordinates": [ 35.041126340561355, 32.54771029247884 ] } },
{ "type": "Feature", "properties": { "NameHE": "גבעת עוז", "Total_popu": "492", "Establishe": "1949", "Height": 115, "NameEN": "Giv'at Oz" }, "geometry": { "type": "Point", "coordinates": [ 35.198586669786273, 32.555481037515108 ] } },
{ "type": "Feature", "properties": { "NameHE": "גבעת שמואל", "Total_popu": "23,706", "Establishe": "1942", "Height": 50, "NameEN": "Giv'at Shemu'el" }, "geometry": { "type": "Point", "coordinates": [ 34.851745813960136, 32.077054017261759 ] } },
{ "type": "Feature", "properties": { "NameHE": "גבעת שמש", "Total_popu": null, "Establishe": null, "Height": 250, "NameEN": "Giv'at Shemesh" }, "geometry": { "type": "Point", "coordinates": [ 34.951392551482364, 31.775183203293704 ] } },
{ "type": "Feature", "properties": { "NameHE": "גבעת שפירא", "Total_popu": "379", "Establishe": "1958", "Height": 34, "NameEN": "Giv'at Shappira" }, "geometry": { "type": "Point", "coordinates": [ 34.87573468708424, 32.357299714968164 ] } },
{ "type": "Feature", "properties": { "NameHE": "גבעתי", "Total_popu": "930", "Establishe": "1950", "Height": 37, "NameEN": "Giv'ati" }, "geometry": { "type": "Point", "coordinates": [ 34.680115766659263, 31.731518287678895 ] } },
{ "type": "Feature", "properties": { "NameHE": "גבעתיים", "Total_popu": "55,703", "Establishe": "1922", "Height": 10, "NameEN": "Giv'atayim" }, "geometry": { "type": "Point", "coordinates": [ 34.810362047771179, 32.070348969503812 ] } },
{ "type": "Feature", "properties": { "NameHE": "גברעם", "Total_popu": "382", "Establishe": "1942", "Height": 87, "NameEN": "Gevar'am" }, "geometry": { "type": "Point", "coordinates": [ 34.612730119752065, 31.592069673505723 ] } },
{ "type": "Feature", "properties": { "NameHE": "גבת", "Total_popu": "774", "Establishe": "1926", "Height": 104, "NameEN": "Gevat" }, "geometry": { "type": "Point", "coordinates": [ 35.212971567554554, 32.672163924722533 ] } },
{ "type": "Feature", "properties": { "NameHE": "גדות", "Total_popu": "392", "Establishe": "1949", "Height": 103, "NameEN": "Gadot" }, "geometry": { "type": "Point", "coordinates": [ 35.61927807903146, 33.018896246570066 ] } },
{ "type": "Feature", "properties": { "NameHE": "גדיש", "Total_popu": "381", "Establishe": "1956", "Height": 66, "NameEN": "Gadish" }, "geometry": { "type": "Point", "coordinates": [ 35.245010748341699, 32.55899140949019 ] } },
{ "type": "Feature", "properties": { "NameHE": "גדעונה", "Total_popu": "290", "Establishe": "1949", "Height": -17, "NameEN": "Gid'ona" }, "geometry": { "type": "Point", "coordinates": [ 35.358818445119326, 32.549074372143124 ] } },
{ "type": "Feature", "properties": { "NameHE": "גדרה", "Total_popu": "24,710", "Establishe": "1884", "Height": 60, "NameEN": "Gedera" }, "geometry": { "type": "Point", "coordinates": [ 34.777337429437793, 31.814939961687774 ] } },
{ "type": "Feature", "properties": { "NameHE": "גונן", "Total_popu": "351", "Establishe": "1951", "Height": 99, "NameEN": "Gonen" }, "geometry": { "type": "Point", "coordinates": [ 35.646026874670753, 33.124567628412905 ] } },
{ "type": "Feature", "properties": { "NameHE": "גורן", "Total_popu": "431", "Establishe": "1950", "Height": 369, "NameEN": "Goren" }, "geometry": { "type": "Point", "coordinates": [ 35.238384583566393, 33.057180134477825 ] } },
{ "type": "Feature", "properties": { "NameHE": "גורנות הגליל", "Total_popu": "154", "Establishe": "1980", "Height": 398, "NameEN": "Gornot HaGalil" }, "geometry": { "type": "Point", "coordinates": [ 35.249628580308787, 33.059701220748416 ] } },
{ "type": "Feature", "properties": { "NameHE": "גזית", "Total_popu": "617", "Establishe": "1948", "Height": 127, "NameEN": "Gazit" }, "geometry": { "type": "Point", "coordinates": [ 35.447210782230741, 32.637664383237947 ] } },
{ "type": "Feature", "properties": { "NameHE": "גזר", "Total_popu": "263", "Establishe": "1945", "Height": 124, "NameEN": "Gezer" }, "geometry": { "type": "Point", "coordinates": [ 34.920573914895861, 31.876213517781682 ] } },
{ "type": "Feature", "properties": { "NameHE": "גיאה", "Total_popu": "889", "Establishe": "1949", "Height": 49, "NameEN": "Ge'a" }, "geometry": { "type": "Point", "coordinates": [ 34.604074111420488, 31.627471773388521 ] } },
{ "type": "Feature", "properties": { "NameHE": "גיבתון", "Total_popu": "294", "Establishe": "1933", "Height": 42, "NameEN": "Gibbeton" }, "geometry": { "type": "Point", "coordinates": [ 34.800038690630103, 31.888873390042374 ] } },
{ "type": "Feature", "properties": { "NameHE": "גיזו", "Total_popu": "189", "Establishe": "1968", "Height": 198, "NameEN": "Gizo" }, "geometry": { "type": "Point", "coordinates": [ 34.938533780887404, 31.804827435924921 ] } },
{ "type": "Feature", "properties": { "NameHE": "גילון", "Total_popu": "1,053", "Establishe": "1980", "Height": 295, "NameEN": "Gilon" }, "geometry": { "type": "Point", "coordinates": [ 35.236615800571414, 32.903626094393459 ] } },
{ "type": "Feature", "properties": { "NameHE": "גילת", "Total_popu": "1,171", "Establishe": "1949", "Height": 135, "NameEN": "Gilat" }, "geometry": { "type": "Point", "coordinates": [ 34.651794885241664, 31.327455956707009 ] } },
{ "type": "Feature", "properties": { "NameHE": "גינוסר", "Total_popu": "490", "Establishe": "1937", "Height": -195, "NameEN": "Ginnosar" }, "geometry": { "type": "Point", "coordinates": [ 35.52405812339704, 32.849752274853181 ] } },
{ "type": "Feature", "properties": { "NameHE": "גיניגר", "Total_popu": "581", "Establishe": "1922", "Height": 109, "NameEN": "Ginnegar" }, "geometry": { "type": "Point", "coordinates": [ 35.25923591409493, 32.663676152619715 ] } },
{ "type": "Feature", "properties": { "NameHE": "גינתון", "Total_popu": "870", "Establishe": "1949", "Height": 59, "NameEN": "Ginnaton" }, "geometry": { "type": "Point", "coordinates": [ 34.914066649171176, 31.962773326306323 ] } },
{ "type": "Feature", "properties": { "NameHE": "גיתה", "Total_popu": "284", "Establishe": "1980", "Height": 432, "NameEN": "Gitta" }, "geometry": { "type": "Point", "coordinates": [ 35.248939804591231, 32.967370892158115 ] } },
{ "type": "Feature", "properties": { "NameHE": "גיתית", "Total_popu": "308", "Establishe": "1973", "Height": 305, "NameEN": "Gittit" }, "geometry": { "type": "Point", "coordinates": [ 35.394296626971254, 32.10283361380322 ] } },
{ "type": "Feature", "properties": { "NameHE": "גלאון", "Total_popu": "355", "Establishe": "1946", "Height": 202, "NameEN": "Gal'on" }, "geometry": { "type": "Point", "coordinates": [ 34.848263311729724, 31.634068218968348 ] } },
{ "type": "Feature", "properties": { "NameHE": "גלגל", "Total_popu": "167", "Establishe": "1970", "Height": -235, "NameEN": "Gilgal" }, "geometry": { "type": "Point", "coordinates": [ 35.448477910239447, 31.999484677115007 ] } },
{ "type": "Feature", "properties": { "NameHE": "גליל ים", "Total_popu": "432", "Establishe": "1943", "Height": 40, "NameEN": "Gelil Yam" }, "geometry": { "type": "Point", "coordinates": [ 34.831401492065574, 32.157344912894743 ] } },
{ "type": "Feature", "properties": { "NameHE": "גלעד (אבן יצחק)", "Total_popu": "421", "Establishe": "1945", "Height": 186, "NameEN": "Gal'ed (Even Yizhaq)" }, "geometry": { "type": "Point", "coordinates": [ 35.07645963067116, 32.556768556538572 ] } },
{ "type": "Feature", "properties": { "NameHE": "גמזו", "Total_popu": "1,069", "Establishe": "1950", "Height": 111, "NameEN": "Gimzo" }, "geometry": { "type": "Point", "coordinates": [ 34.939872433536415, 31.927749137019134 ] } },
{ "type": "Feature", "properties": { "NameHE": "גן הדרום", "Total_popu": "526", "Establishe": "1953", "Height": 41, "NameEN": "Gan HaDarom" }, "geometry": { "type": "Point", "coordinates": [ 34.699977647268305, 31.804826946827109 ] } },
{ "type": "Feature", "properties": { "NameHE": "גן השומרון", "Total_popu": "785", "Establishe": "1934", "Height": 45, "NameEN": "Gan HaShomeron" }, "geometry": { "type": "Point", "coordinates": [ 34.998523267988567, 32.461982720931687 ] } },
{ "type": "Feature", "properties": { "NameHE": "גן חיים", "Total_popu": "830", "Establishe": "1935", "Height": 63, "NameEN": "Gan Hayyim" }, "geometry": { "type": "Point", "coordinates": [ 34.905271628809075, 32.194965067218298 ] } },
{ "type": "Feature", "properties": { "NameHE": "גן יאשיה", "Total_popu": "931", "Establishe": "1949", "Height": 31, "NameEN": "Gan Yoshiyya" }, "geometry": { "type": "Point", "coordinates": [ 34.99336009315941, 32.34979636490241 ] } },
{ "type": "Feature", "properties": { "NameHE": "גן יבנה", "Total_popu": "20,698", "Establishe": "1931", "Height": 42, "NameEN": "Gan Yavne" }, "geometry": { "type": "Point", "coordinates": [ 34.702711200524867, 31.787522712512299 ] } },
{ "type": "Feature", "properties": { "NameHE": "גן נר", "Total_popu": "2,544", "Establishe": "1987", "Height": 177, "NameEN": "Gan Ner" }, "geometry": { "type": "Point", "coordinates": [ 35.337711202944789, 32.53079331950633 ] } },
{ "type": "Feature", "properties": { "NameHE": "גן שורק", "Total_popu": "666", "Establishe": "1950", "Height": 38, "NameEN": "Gan Soreq" }, "geometry": { "type": "Point", "coordinates": [ 34.760343158553859, 31.945104088736485 ] } },
{ "type": "Feature", "properties": { "NameHE": "גן שלמה", "Total_popu": "471", "Establishe": "1927", "Height": 45, "NameEN": "Gan Shelomo" }, "geometry": { "type": "Point", "coordinates": [ 34.798393050632619, 31.878497236983154 ] } },
{ "type": "Feature", "properties": { "NameHE": "גן שמואל", "Total_popu": "853", "Establishe": "1913", "Height": 26, "NameEN": "Gan Shemu'el" }, "geometry": { "type": "Point", "coordinates": [ 34.950469655774938, 32.453959604189443 ] } },
{ "type": "Feature", "properties": { "NameHE": "גנות", "Total_popu": "621", "Establishe": "1953", "Height": 26, "NameEN": "Gannot" }, "geometry": { "type": "Point", "coordinates": [ 34.829214490885136, 32.018192177299674 ] } },
{ "type": "Feature", "properties": { "NameHE": "גנות הדר", "Total_popu": "845", "Establishe": "1964", "Height": 47, "NameEN": "Gannot Hadar" }, "geometry": { "type": "Point", "coordinates": [ 34.900610801834922, 32.32075075035025 ] } },
{ "type": "Feature", "properties": { "NameHE": "גני הדר", "Total_popu": "272", "Establishe": "1958", "Height": 77, "NameEN": "Ganne Hadar" }, "geometry": { "type": "Point", "coordinates": [ 34.85430061451364, 31.878663528192384 ] } },
{ "type": "Feature", "properties": { "NameHE": "גני טל", "Total_popu": "171", "Establishe": "2010", "Height": 77, "NameEN": "Ganne Tal" }, "geometry": { "type": "Point", "coordinates": [ 34.790020851580458, 31.789099404410148 ] } },
{ "type": "Feature", "properties": { "NameHE": "גני יוחנן", "Total_popu": "605", "Establishe": "1950", "Height": 63, "NameEN": "Ganne Yohanan" }, "geometry": { "type": "Point", "coordinates": [ 34.832937979208396, 31.855786795227203 ] } },
{ "type": "Feature", "properties": { "NameHE": "גני עם", "Total_popu": "246", "Establishe": "1934", "Height": 35, "NameEN": "Ganne Am" }, "geometry": { "type": "Point", "coordinates": [ 34.901385720879937, 32.151489956293794 ] } },
{ "type": "Feature", "properties": { "NameHE": "גני תקווה", "Total_popu": "14,266", "Establishe": "1953", "Height": 74, "NameEN": "Ganne Tiqwa" }, "geometry": { "type": "Point", "coordinates": [ 34.874041176670609, 32.062234508939348 ] } },
{ "type": "Feature", "properties": { "NameHE": "געש", "Total_popu": "630", "Establishe": "1951", "Height": 27, "NameEN": "Ga'ash" }, "geometry": { "type": "Point", "coordinates": [ 34.826654253794459, 32.228751436903416 ] } },
{ "type": "Feature", "properties": { "NameHE": "געתון", "Total_popu": "528", "Establishe": "1948", "Height": 294, "NameEN": "Ga'ton" }, "geometry": { "type": "Point", "coordinates": [ 35.213966409695928, 33.006330567201971 ] } },
{ "type": "Feature", "properties": { "NameHE": "גפן", "Total_popu": "380", "Establishe": "1955", "Height": 164, "NameEN": "Gefen" }, "geometry": { "type": "Point", "coordinates": [ 34.878136078510963, 31.742640525070215 ] } },
{ "type": "Feature", "properties": { "NameHE": "גרופית", "Total_popu": "280", "Establishe": "1963", "Height": 140, "NameEN": "Gerofit" }, "geometry": { "type": "Point", "coordinates": [ 35.066168328687418, 29.939487870799088 ] } },
{ "type": "Feature", "properties": { "NameHE": "גשור", "Total_popu": "226", "Establishe": "1971", "Height": 345, "NameEN": "Geshur" }, "geometry": { "type": "Point", "coordinates": [ 35.719039018314412, 32.817904457876558 ] } },
{ "type": "Feature", "properties": { "NameHE": "גשר", "Total_popu": "464", "Establishe": "1939", "Height": -200, "NameEN": "Gesher" }, "geometry": { "type": "Point", "coordinates": [ 35.550833252917585, 32.619387036896711 ] } },
{ "type": "Feature", "properties": { "NameHE": "גשר הזיו", "Total_popu": "1,546", "Establishe": "1949", "Height": 23, "NameEN": "Gesher HaZiw" }, "geometry": { "type": "Point", "coordinates": [ 35.11205379470038, 33.042002570897175 ] } },
{ "type": "Feature", "properties": { "NameHE": "גת (קיבוץ)", "Total_popu": "639", "Establishe": "1941", "Height": 144, "NameEN": "Gat(Qibbuz)" }, "geometry": { "type": "Point", "coordinates": [ 34.792428607396175, 31.626775579373327 ] } },
{ "type": "Feature", "properties": { "NameHE": "גת רימון", "Total_popu": "280", "Establishe": "1926", "Height": 72, "NameEN": "Gat Rimmon" }, "geometry": { "type": "Point", "coordinates": [ 34.880373026641877, 32.068473251328655 ] } },
{ "type": "Feature", "properties": { "NameHE": "דאלית אל-כרמל", "Total_popu": "16,036", "Establishe": null, "Height": 450, "NameEN": "Daliyat Al-Karmel" }, "geometry": { "type": "Point", "coordinates": [ 35.050243907761867, 32.694341671727493 ] } },
{ "type": "Feature", "properties": { "NameHE": "דבורה", "Total_popu": "230", "Establishe": "1956", "Height": 68, "NameEN": "Devora" }, "geometry": { "type": "Point", "coordinates": [ 35.263427684563844, 32.553303218713495 ] } },
{ "type": "Feature", "properties": { "NameHE": "דבורייה", "Total_popu": "9,444", "Establishe": null, "Height": 179, "NameEN": "Daburiyya" }, "geometry": { "type": "Point", "coordinates": [ 35.368017534237701, 32.690001772482724 ] } },
{ "type": "Feature", "properties": { "NameHE": "דבירה", "Total_popu": "635", "Establishe": "1951", "Height": 313, "NameEN": "Devira" }, "geometry": { "type": "Point", "coordinates": [ 34.825865929664033, 31.41169276832785 ] } },
{ "type": "Feature", "properties": { "NameHE": "דברת", "Total_popu": "312", "Establishe": "1946", "Height": 167, "NameEN": "Daverat" }, "geometry": { "type": "Point", "coordinates": [ 35.349926943812576, 32.64701226394952 ] } },
{ "type": "Feature", "properties": { "NameHE": "דגניה א'", "Total_popu": "564", "Establishe": "1909", "Height": -204, "NameEN": "Deganya Alef" }, "geometry": { "type": "Point", "coordinates": [ 35.573568530367744, 32.707058535434811 ] } },
{ "type": "Feature", "properties": { "NameHE": "דגניה ב'", "Total_popu": "615", "Establishe": "1920", "Height": -205, "NameEN": "Deganya Bet" }, "geometry": { "type": "Point", "coordinates": [ 35.576949151788703, 32.699293898638281 ] } },
{ "type": "Feature", "properties": { "NameHE": "דוב\"ב", "Total_popu": "496", "Establishe": "1963", "Height": 773, "NameEN": "Dovev" }, "geometry": { "type": "Point", "coordinates": [ 35.406905689308807, 33.051790925838986 ] } },
{ "type": "Feature", "properties": { "NameHE": "דולב", "Total_popu": "1,306", "Establishe": "1983", "Height": 610, "NameEN": "Dolev" }, "geometry": { "type": "Point", "coordinates": [ 35.132961216622832, 31.926651908485734 ] } },
{ "type": "Feature", "properties": { "NameHE": "דור", "Total_popu": "373", "Establishe": "1949", "Height": 4, "NameEN": "Dor" }, "geometry": { "type": "Point", "coordinates": [ 34.921378868121216, 32.607642666451284 ] } },
{ "type": "Feature", "properties": { "NameHE": "דורות", "Total_popu": "718", "Establishe": "1941", "Height": 105, "NameEN": "Dorot" }, "geometry": { "type": "Point", "coordinates": [ 34.64569268844577, 31.506271226840415 ] } },
{ "type": "Feature", "properties": { "NameHE": "דחי", "Total_popu": "597", "Establishe": null, "Height": 417, "NameEN": "Dahi" }, "geometry": { "type": "Point", "coordinates": [ 35.344664376540628, 32.621319242813705 ] } },
{ "type": "Feature", "properties": { "NameHE": "דייר אל-אסד", "Total_popu": "11,107", "Establishe": null, "Height": 350, "NameEN": "Deir Al-Asad" }, "geometry": { "type": "Point", "coordinates": [ 35.267532886942675, 32.940853672370331 ] } },
{ "type": "Feature", "properties": { "NameHE": "דייר חנא", "Total_popu": "9,377", "Establishe": null, "Height": 264, "NameEN": "Deir Hanna" }, "geometry": { "type": "Point", "coordinates": [ 35.368230571010827, 32.864750661095528 ] } },
{ "type": "Feature", "properties": { "NameHE": "דייר ראפאת", "Total_popu": null, "Establishe": null, "Height": 249, "NameEN": "Deir Rafat" }, "geometry": { "type": "Point", "coordinates": [ 34.947589578398343, 31.776077428047781 ] } },
{ "type": "Feature", "properties": { "NameHE": "דימונה", "Total_popu": "33,056", "Establishe": "1955", "Height": 550, "NameEN": "Dimona" }, "geometry": { "type": "Point", "coordinates": [ 35.093960975248805, 31.015448917427157 ] } },
{ "type": "Feature", "properties": { "NameHE": "דישון", "Total_popu": "373", "Establishe": "1953", "Height": 430, "NameEN": "Dishon" }, "geometry": { "type": "Point", "coordinates": [ 35.526287043636692, 33.081835636391688 ] } },
{ "type": "Feature", "properties": { "NameHE": "דלייה", "Total_popu": "774", "Establishe": "1939", "Height": 204, "NameEN": "Daliyya" }, "geometry": { "type": "Point", "coordinates": [ 35.075347583299525, 32.589770680197525 ] } },
{ "type": "Feature", "properties": { "NameHE": "דלתון", "Total_popu": "855", "Establishe": "1950", "Height": 805, "NameEN": "Dalton" }, "geometry": { "type": "Point", "coordinates": [ 35.488593170771715, 33.017098134748295 ] } },
{ "type": "Feature", "properties": { "NameHE": "דלתון", "Total_popu": null, "Establishe": null, "Height": null, "NameEN": null }, "geometry": { "type": "Point", "coordinates": [ 35.478241126587285, 33.026588702056912 ] } },
{ "type": "Feature", "properties": { "NameHE": "דמיידה", "Total_popu": "422", "Establishe": null, "Height": 219, "NameEN": "Demeide" }, "geometry": { "type": "Point", "coordinates": [ 35.227934409070258, 32.814451058438962 ] } },
{ "type": "Feature", "properties": { "NameHE": "דן", "Total_popu": "594", "Establishe": "1939", "Height": 170, "NameEN": "Dan" }, "geometry": { "type": "Point", "coordinates": [ 35.654867594591373, 33.239944651587273 ] } },
{ "type": "Feature", "properties": { "NameHE": "דפנה", "Total_popu": "875", "Establishe": "1939", "Height": 139, "NameEN": "Dafna" }, "geometry": { "type": "Point", "coordinates": [ 35.638401963774555, 33.22990499491199 ] } },
{ "type": "Feature", "properties": { "NameHE": "דקל", "Total_popu": "306", "Establishe": "1982", "Height": 106, "NameEN": "Deqel" }, "geometry": { "type": "Point", "coordinates": [ 34.345053926397675, 31.195178155604559 ] } },
{ "type": "Feature", "properties": { "NameHE": "דריג'את", "Total_popu": "975", "Establishe": null, "Height": 610, "NameEN": "Derig'at" }, "geometry": { "type": "Point", "coordinates": [ 35.077140639990596, 31.299090272228518 ] } },
{ "type": "Feature", "properties": { "NameHE": "האון", "Total_popu": "184", "Establishe": "1949", "Height": -159, "NameEN": "HaOn" }, "geometry": { "type": "Point", "coordinates": [ 35.625904496502571, 32.723304530546223 ] } },
{ "type": "Feature", "properties": { "NameHE": "הבונים", "Total_popu": "320", "Establishe": "1949", "Height": 17, "NameEN": "HaBonim" }, "geometry": { "type": "Point", "coordinates": [ 34.933217131980292, 32.638687890105601 ] } },
{ "type": "Feature", "properties": { "NameHE": "הגושרים", "Total_popu": "683", "Establishe": "1948", "Height": 246, "NameEN": "HaGosherim" }, "geometry": { "type": "Point", "coordinates": [ 35.624619205722162, 33.2193131199164 ] } },
{ "type": "Feature", "properties": { "NameHE": "הדר עם", "Total_popu": "526", "Establishe": "1933", "Height": 29, "NameEN": "Hadar Am" }, "geometry": { "type": "Point", "coordinates": [ 34.901686799250797, 32.348437314912424 ] } },
{ "type": "Feature", "properties": { "NameHE": "הוד השרון", "Total_popu": "51,035", "Establishe": "1924", "Height": 45, "NameEN": "Hod HaSharon" }, "geometry": { "type": "Point", "coordinates": [ 34.888679735464933, 32.147400856271446 ] } },
{ "type": "Feature", "properties": { "NameHE": "הודיות", "Total_popu": "192", "Establishe": "1959", "Height": 285, "NameEN": "Hodayot" }, "geometry": { "type": "Point", "coordinates": [ 35.435237131556896, 32.788722746693921 ] } },
{ "type": "Feature", "properties": { "NameHE": "הודייה", "Total_popu": "506", "Establishe": "1949", "Height": 48, "NameEN": "Hodiyya" }, "geometry": { "type": "Point", "coordinates": [ 34.643112069477816, 31.673462920357842 ] } },
{ "type": "Feature", "properties": { "NameHE": "הושעיה", "Total_popu": "1,862", "Establishe": "1981", "Height": 235, "NameEN": "Hosha'aya" }, "geometry": { "type": "Point", "coordinates": [ 35.292908387167593, 32.757975733990747 ] } },
{ "type": "Feature", "properties": { "NameHE": "הזורע", "Total_popu": "859", "Establishe": "1936", "Height": 65, "NameEN": "HaZorea" }, "geometry": { "type": "Point", "coordinates": [ 35.120352399533864, 32.643912248904151 ] } },
{ "type": "Feature", "properties": { "NameHE": "הזורעים", "Total_popu": "834", "Establishe": "1939", "Height": -52, "NameEN": "HaZore'im" }, "geometry": { "type": "Point", "coordinates": [ 35.500743150565391, 32.74485267550024 ] } },
{ "type": "Feature", "properties": { "NameHE": "החותרים", "Total_popu": "631", "Establishe": "1948", "Height": 16, "NameEN": "HaHoterim" }, "geometry": { "type": "Point", "coordinates": [ 34.956884110927071, 32.751630682969534 ] } },
{ "type": "Feature", "properties": { "NameHE": "היוגב", "Total_popu": "590", "Establishe": "1949", "Height": 96, "NameEN": "HaYogev" }, "geometry": { "type": "Point", "coordinates": [ 35.204762292913294, 32.611478483017343 ] } },
{ "type": "Feature", "properties": { "NameHE": "הילה", "Total_popu": "555", "Establishe": "1980", "Height": 495, "NameEN": "Hilla" }, "geometry": { "type": "Point", "coordinates": [ 35.243942959815222, 33.035989467543587 ] } },
{ "type": "Feature", "properties": { "NameHE": "המעפיל", "Total_popu": "746", "Establishe": "1945", "Height": 33, "NameEN": "HaMa'pil" }, "geometry": { "type": "Point", "coordinates": [ 34.983412561531601, 32.377733775953232 ] } },
{ "type": "Feature", "properties": { "NameHE": "המרכז למחקר-נחל שורק", "Total_popu": null, "Establishe": null, "Height": null, "NameEN": null }, "geometry": { "type": "Point", "coordinates": [ 34.700809029091729, 31.904480972112562 ] } },
{ "type": "Feature", "properties": { "NameHE": "הסוללים", "Total_popu": "820", "Establishe": "1949", "Height": 182, "NameEN": "HaSolelim" }, "geometry": { "type": "Point", "coordinates": [ 35.235921050660203, 32.751961560538767 ] } },
{ "type": "Feature", "properties": { "NameHE": "העוגן", "Total_popu": "776", "Establishe": "1947", "Height": 18, "NameEN": "HaOgen" }, "geometry": { "type": "Point", "coordinates": [ 34.923633853797725, 32.362194784350642 ] } },
{ "type": "Feature", "properties": { "NameHE": "הר אדר", "Total_popu": "3,701", "Establishe": "1986", "Height": 880, "NameEN": "Har Adar" }, "geometry": { "type": "Point", "coordinates": [ 35.129235705771848, 31.826817322612282 ] } },
{ "type": "Feature", "properties": { "NameHE": "הר גילה", "Total_popu": "952", "Establishe": "1972", "Height": 915, "NameEN": "Har Gillo" }, "geometry": { "type": "Point", "coordinates": [ 35.172263098605256, 31.721590365345662 ] } },
{ "type": "Feature", "properties": { "NameHE": "הר עמשא", "Total_popu": null, "Establishe": null, "Height": 838, "NameEN": "Har Amasa" }, "geometry": { "type": "Point", "coordinates": [ 35.101880086120914, 31.344207766597165 ] } },
{ "type": "Feature", "properties": { "NameHE": "הראל", "Total_popu": "216", "Establishe": "1948", "Height": 203, "NameEN": "Har'el" }, "geometry": { "type": "Point", "coordinates": [ 34.950349663661044, 31.809090199413287 ] } },
{ "type": "Feature", "properties": { "NameHE": "הרדוף", "Total_popu": "1,019", "Establishe": "1982", "Height": 214, "NameEN": "Harduf" }, "geometry": { "type": "Point", "coordinates": [ 35.171038787642587, 32.764134010777603 ] } },
{ "type": "Feature", "properties": { "NameHE": "הרצלייה", "Total_popu": "89,232", "Establishe": "1924", "Height": 20, "NameEN": "Herzliyya" }, "geometry": { "type": "Point", "coordinates": [ 34.826797854481072, 32.168332967540586 ] } },
{ "type": "Feature", "properties": { "NameHE": "הררית", "Total_popu": "339", "Establishe": "1980", "Height": 451, "NameEN": "Hararit" }, "geometry": { "type": "Point", "coordinates": [ 35.365844323212734, 32.84500680789052 ] } },
{ "type": "Feature", "properties": { "NameHE": "ורד יריחו", "Total_popu": "221", "Establishe": "1980", "Height": -130, "NameEN": "Wered Yeriho" }, "geometry": { "type": "Point", "coordinates": [ 35.433446205515104, 31.826904222208615 ] } },
{ "type": "Feature", "properties": { "NameHE": "ורדון", "Total_popu": "254", "Establishe": "1968", "Height": 99, "NameEN": "Wardon" }, "geometry": { "type": "Point", "coordinates": [ 34.781191726400166, 31.664255809999979 ] } },
{ "type": "Feature", "properties": { "NameHE": "זבדיאל", "Total_popu": "477", "Establishe": "1950", "Height": 90, "NameEN": "Zavdi'el" }, "geometry": { "type": "Point", "coordinates": [ 34.761807642955787, 31.660582646703432 ] } },
{ "type": "Feature", "properties": { "NameHE": "זוהר", "Total_popu": "314", "Establishe": "1956", "Height": 119, "NameEN": "Zohar" }, "geometry": { "type": "Point", "coordinates": [ 34.692682699011321, 31.595030339066479 ] } },
{ "type": "Feature", "properties": { "NameHE": "זיקים", "Total_popu": "568", "Establishe": "1949", "Height": 24, "NameEN": "Ziqim" }, "geometry": { "type": "Point", "coordinates": [ 34.521999560631428, 31.608661991552207 ] } },
{ "type": "Feature", "properties": { "NameHE": "זיתן", "Total_popu": "1,034", "Establishe": "1950", "Height": 43, "NameEN": "Zetan" }, "geometry": { "type": "Point", "coordinates": [ 34.890431712111017, 31.976063841581716 ] } },
{ "type": "Feature", "properties": { "NameHE": "זכרון יעקב", "Total_popu": "20,897", "Establishe": "1882", "Height": 70, "NameEN": "Zikhron Ya'aqov" }, "geometry": { "type": "Point", "coordinates": [ 34.969639377759215, 32.566713722413766 ] } },
{ "type": "Feature", "properties": { "NameHE": "זכריה", "Total_popu": "935", "Establishe": "1950", "Height": 265, "NameEN": "Zekharya" }, "geometry": { "type": "Point", "coordinates": [ 34.944501918033851, 31.709875825622429 ] } },
{ "type": "Feature", "properties": { "NameHE": "זמר", "Total_popu": "6,090", "Establishe": null, "Height": 89, "NameEN": "Zemer" }, "geometry": { "type": "Point", "coordinates": [ 35.033276610753106, 32.363924303661982 ] } },
{ "type": "Feature", "properties": { "NameHE": "זמרת", "Total_popu": "315", "Establishe": "1957", "Height": 123, "NameEN": "Zimrat" }, "geometry": { "type": "Point", "coordinates": [ 34.551885935452852, 31.448018038034117 ] } },
{ "type": "Feature", "properties": { "NameHE": "זנוח", "Total_popu": "475", "Establishe": "1950", "Height": 284, "NameEN": "Zanoah" }, "geometry": { "type": "Point", "coordinates": [ 34.999521926609624, 31.731981251958729 ] } },
{ "type": "Feature", "properties": { "NameHE": "זרועה", "Total_popu": "385", "Establishe": "1953", "Height": 140, "NameEN": "Zeru'a" }, "geometry": { "type": "Point", "coordinates": [ 34.622712968148072, 31.460444334587077 ] } },
{ "type": "Feature", "properties": { "NameHE": "זרזיר", "Total_popu": "6,904", "Establishe": null, "Height": 187, "NameEN": "Zarzir" }, "geometry": { "type": "Point", "coordinates": [ 35.223110809499836, 32.725814654651451 ] } },
{ "type": "Feature", "properties": { "NameHE": "זרחיה", "Total_popu": "685", "Establishe": "1950", "Height": 72, "NameEN": "Zerahya" }, "geometry": { "type": "Point", "coordinates": [ 34.743360490825083, 31.68098920337555 ] } },
{ "type": "Feature", "properties": { "NameHE": "ח'ואלד", "Total_popu": "398", "Establishe": null, "Height": 73, "NameEN": "Khawaled" }, "geometry": { "type": "Point", "coordinates": [ 35.13859101458911, 32.770252708998548 ] } },
{ "type": "Feature", "properties": { "NameHE": "חבצלת השרון", "Total_popu": "572", "Establishe": "1935", "Height": 23, "NameEN": "Havazzelet HaSharon" }, "geometry": { "type": "Point", "coordinates": [ 34.862658477471065, 32.359609509432659 ] } },
{ "type": "Feature", "properties": { "NameHE": "חבר", "Total_popu": "389", "Establishe": "1958", "Height": 69, "NameEN": "Hever" }, "geometry": { "type": "Point", "coordinates": [ 35.265021059516656, 32.547801893935784 ] } },
{ "type": "Feature", "properties": { "NameHE": "חגור", "Total_popu": "1,068", "Establishe": "1949", "Height": 39, "NameEN": "Hagor" }, "geometry": { "type": "Point", "coordinates": [ 34.945840017313522, 32.137340393744466 ] } },
{ "type": "Feature", "properties": { "NameHE": "חגי", "Total_popu": "541", "Establishe": "1984", "Height": 880, "NameEN": "Haggay" }, "geometry": { "type": "Point", "coordinates": [ 35.079825007852406, 31.493451500839015 ] } },
{ "type": "Feature", "properties": { "NameHE": "חגלה", "Total_popu": "792", "Establishe": "1933", "Height": 19, "NameEN": "Hogla" }, "geometry": { "type": "Point", "coordinates": [ 34.92653640777575, 32.385827156124563 ] } },
{ "type": "Feature", "properties": { "NameHE": "חד-נס", "Total_popu": "742", "Establishe": "1989", "Height": 30, "NameEN": "Had-Nes" }, "geometry": { "type": "Point", "coordinates": [ 35.642479826887566, 32.927568901869982 ] } },
{ "type": "Feature", "properties": { "NameHE": "חדיד", "Total_popu": "756", "Establishe": "1950", "Height": 69, "NameEN": "Hadid" }, "geometry": { "type": "Point", "coordinates": [ 34.933939791539551, 31.96759683864191 ] } },
{ "type": "Feature", "properties": { "NameHE": "חדרה", "Total_popu": "84,065", "Establishe": "1890", "Height": 25, "NameEN": "Hadera" }, "geometry": { "type": "Point", "coordinates": [ 34.917240151773434, 32.435312276381971 ] } },
{ "type": "Feature", "properties": { "NameHE": "חולדה", "Total_popu": "502", "Establishe": "1930", "Height": 120, "NameEN": "Hulda" }, "geometry": { "type": "Point", "coordinates": [ 34.882686706127352, 31.83040068644765 ] } },
{ "type": "Feature", "properties": { "NameHE": "חולון", "Total_popu": "185,306", "Establishe": "1940", "Height": 20, "NameEN": "Holon" }, "geometry": { "type": "Point", "coordinates": [ 34.783523266928185, 32.010654004816658 ] } },
{ "type": "Feature", "properties": { "NameHE": "חולית", "Total_popu": "110", "Establishe": "1980", "Height": 73, "NameEN": "Holit" }, "geometry": { "type": "Point", "coordinates": [ 34.326372465926433, 31.229954522546471 ] } },
{ "type": "Feature", "properties": { "NameHE": "חולתה", "Total_popu": "533", "Establishe": "1937", "Height": 80, "NameEN": "Hulata" }, "geometry": { "type": "Point", "coordinates": [ 35.610435594626701, 33.051114349689719 ] } },
{ "type": "Feature", "properties": { "NameHE": "חוסן", "Total_popu": "904", "Establishe": "1949", "Height": 466, "NameEN": "Hosen" }, "geometry": { "type": "Point", "coordinates": [ 35.297962388512921, 32.998361280256624 ] } },
{ "type": "Feature", "properties": { "NameHE": "חוסנייה", "Total_popu": "612", "Establishe": null, "Height": 293, "NameEN": "Hussniyya" }, "geometry": { "type": "Point", "coordinates": [ 35.321587015569506, 32.899878513969014 ] } },
{ "type": "Feature", "properties": { "NameHE": "חופית", "Total_popu": "753", "Establishe": "1955", "Height": 16, "NameEN": "Hofit" }, "geometry": { "type": "Point", "coordinates": [ 34.873827181173752, 32.385158863926584 ] } },
{ "type": "Feature", "properties": { "NameHE": "חוקוק", "Total_popu": "477", "Establishe": "1945", "Height": -20, "NameEN": "Huqoq" }, "geometry": { "type": "Point", "coordinates": [ 35.495633506819821, 32.879486987595328 ] } },
{ "type": "Feature", "properties": { "NameHE": "חורה", "Total_popu": "17,481", "Establishe": null, "Height": 418, "NameEN": "Hura" }, "geometry": { "type": "Point", "coordinates": [ 34.937448130001123, 31.297522916403913 ] } },
{ "type": "Feature", "properties": { "NameHE": "חורפיש", "Total_popu": "5,818", "Establishe": null, "Height": 654, "NameEN": "Hurfeish" }, "geometry": { "type": "Point", "coordinates": [ 35.345938464359797, 33.022841446936454 ] } },
{ "type": "Feature", "properties": { "NameHE": "חורשים", "Total_popu": "293", "Establishe": "1955", "Height": 85, "NameEN": "Horeshim" }, "geometry": { "type": "Point", "coordinates": [ 34.970850185504744, 32.138200640020273 ] } },
{ "type": "Feature", "properties": { "NameHE": "חזון", "Total_popu": "311", "Establishe": "1969", "Height": 439, "NameEN": "Hazon" }, "geometry": { "type": "Point", "coordinates": [ 35.394709476058082, 32.906461101763242 ] } },
{ "type": "Feature", "properties": { "NameHE": "חיבת ציון", "Total_popu": "632", "Establishe": "1933", "Height": 31, "NameEN": "Hibbat Ziyyon" }, "geometry": { "type": "Point", "coordinates": [ 34.912788081339663, 32.397969722560937 ] } },
{ "type": "Feature", "properties": { "NameHE": "חיננית", "Total_popu": "945", "Establishe": "1981", "Height": 390, "NameEN": "Hinnanit" }, "geometry": { "type": "Point", "coordinates": [ 35.168484295011176, 32.481172865070235 ] } },
{ "type": "Feature", "properties": { "NameHE": "חיפה", "Total_popu": "272,181", "Establishe": "ותיק", "Height": 5, "NameEN": "Haifa" }, "geometry": { "type": "Point", "coordinates": [ 35.010772264671807, 32.800146759316569 ] } },
{ "type": "Feature", "properties": { "NameHE": "חירות", "Total_popu": "1,304", "Establishe": "1930", "Height": 62, "NameEN": "Herut" }, "geometry": { "type": "Point", "coordinates": [ 34.915097278058909, 32.240166883452723 ] } },
{ "type": "Feature", "properties": { "NameHE": "חלוץ", "Total_popu": "401", "Establishe": "1985", "Height": 734, "NameEN": "Haluz" }, "geometry": { "type": "Point", "coordinates": [ 35.312883765040091, 32.950109826283317 ] } },
{ "type": "Feature", "properties": { "NameHE": "חלמיש", "Total_popu": "1,144", "Establishe": "1977", "Height": 560, "NameEN": "Hallamish" }, "geometry": { "type": "Point", "coordinates": [ 35.125703189786492, 32.005736867930736 ] } },
{ "type": "Feature", "properties": { "NameHE": "חלץ", "Total_popu": "447", "Establishe": "1950", "Height": 82, "NameEN": "Helez" }, "geometry": { "type": "Point", "coordinates": [ 34.658963545107, 31.577394888528378 ] } },
{ "type": "Feature", "properties": { "NameHE": "חמאם", "Total_popu": "1,331", "Establishe": null, "Height": -101, "NameEN": "Hamam" }, "geometry": { "type": "Point", "coordinates": [ 35.489492029952515, 32.830269173096887 ] } },
{ "type": "Feature", "properties": { "NameHE": "חמד", "Total_popu": "1,068", "Establishe": "1950", "Height": 28, "NameEN": "Hemed" }, "geometry": { "type": "Point", "coordinates": [ 34.838629358026211, 32.019572386089891 ] } },
{ "type": "Feature", "properties": { "NameHE": "חמדיה", "Total_popu": "383", "Establishe": "1942", "Height": -186, "NameEN": "Hamadya" }, "geometry": { "type": "Point", "coordinates": [ 35.519800710576916, 32.520369293163199 ] } },
{ "type": "Feature", "properties": { "NameHE": "חמדת", "Total_popu": "186", "Establishe": "1980", "Height": 130, "NameEN": "Hemdat" }, "geometry": { "type": "Point", "coordinates": [ 35.527998481249377, 32.252709064071887 ] } },
{ "type": "Feature", "properties": { "NameHE": "חמרה", "Total_popu": "110", "Establishe": "1971", "Height": -55, "NameEN": "Hamra" }, "geometry": { "type": "Point", "coordinates": [ 35.435751538799302, 32.198895184244705 ] } },
{ "type": "Feature", "properties": { "NameHE": "חניאל", "Total_popu": "919", "Establishe": "1950", "Height": 31, "NameEN": "Hanni'el" }, "geometry": { "type": "Point", "coordinates": [ 34.949320264085003, 32.333302946456548 ] } },
{ "type": "Feature", "properties": { "NameHE": "חניתה", "Total_popu": "669", "Establishe": "1938", "Height": 327, "NameEN": "Hanita" }, "geometry": { "type": "Point", "coordinates": [ 35.174344077932965, 33.088198093063831 ] } },
{ "type": "Feature", "properties": { "NameHE": "חנתון", "Total_popu": "614", "Establishe": "1984", "Height": 192, "NameEN": "Hannaton" }, "geometry": { "type": "Point", "coordinates": [ 35.242550132882798, 32.783158591119147 ] } },
{ "type": "Feature", "properties": { "NameHE": "חספין", "Total_popu": "1,236", "Establishe": "1973", "Height": 415, "NameEN": "Haspin" },